,name,price_level,rating,user_ratings_total,formatted_address,latitude,longitude
767,The Market,NULL,1.7,6,"5700 S Cicero Ave, Chicago, IL 60629, USA",41.7871869,-87.7448002
466,Big City Chicken,NULL,2.2,63,"Concourse B, O'Hare International Airport, Gate B7, Chicago, IL 60638, USA",41.7883487,-87.7437026
294,Harold's Chicken On Clinton,NULL,2.3,24,"115 S Clinton St, Chicago, IL 60661, USA",41.8800411,-87.6409648
192,Hudson News Euro Cafe,NULL,2.4,5,"5700 S Cicero Ave, Chicago, IL 60638, USA",41.7878473,-87.7419597
88,Baskin-Robbins,1,2.5,13,"901 W Washington Blvd, Chicago, IL 60607, USA",41.8829483,-87.6498902
1000,Aunt Martha's,NULL,2.6,25,"5001 S Michigan Ave, Chicago, IL 60615, USA",41.8037306,-87.6224262
576,Barney's Pizza Chicago,1,2.8,561,"5648 W Chicago Ave, Chicago, IL 60651, USA",41.8949803,-87.7674055
1232,Ina's Restaurant,NULL,2.8,5,"1738 W 47th St, Chicago, IL 60609, USA",41.8087804,-87.6689508
110,Frankie's Fast Food Corner,1,3,3,"10356 S Corliss Ave, Chicago, IL 60628, USA",41.7057555,-87.6042097
232,Papa Johns Pizza,1,3,139,"2020 N California Ave Ste 2, Chicago, IL 60647, USA",41.918111,-87.6976307
380,El Ranchito on Grand,1,3,575,"5959 W Grand Ave, Chicago, IL 60639, USA",41.9203807,-87.7754302
238,La Michoacana,NULL,3,60,"5754 W Belmont Ave, Chicago, IL 60634, USA",41.9386367,-87.7712097
332,The G Spot Diner,NULL,3,2,"219 E 47th St, Chicago, IL 60653, USA",41.8091557,-87.6203152
1025,UChicago Medicine,NULL,3,568,"5841 S Maryland Ave, Chicago, IL 60637, USA",41.7892944,-87.6039963
48,Woodgrain Pizzeria,NULL,3.1,94,"5700 S Cicero Ave, Chicago, IL 60638, USA",41.7858688,-87.742156
1113,Texan Taco Bar,NULL,3.1,60,"942 W Randolph St, Chicago, IL 60607, USA",41.8845908,-87.6515997
69,McDonald's,1,3.2,1834,"70 E Garfield Blvd, Chicago, IL 60615, USA",41.795018,-87.62294
112,KFC,1,3.2,569,"300 E 35th St, Chicago, IL 60616, USA",41.8312875,-87.6189845
118,Little Caesars Pizza,1,3.2,456,"1406 W 47th St, Chicago, IL 60609, USA",41.8090402,-87.6602261
129,Popeyes Louisiana Kitchen,1,3.2,1418,"7430 S Stony Is Ave, Chicago, IL 60649, USA",41.7593472,-87.5864919
365,Nicky's Chinese Food,1,3.2,496,"5231 S Woodlawn Ave, Chicago, IL 60615, USA",41.8000346,-87.5964117
154,Lugano's Pizza,2,3.2,119,"4460 S Kedzie Ave, Chicago, IL 60632, USA",41.8118162,-87.7044641
319,Baba's Famous Lemonade,2,3.2,65,"6421 S Martin Luther King Dr, Chicago, IL 60637, USA",41.7777661,-87.6154206
1198,Rosati's Pizza - Chicago Uptown,2,3.2,264,"4863 N Broadway, Chicago, IL 60640, USA",41.9706667,-87.6588333
94,Big Shoulders Coffee,NULL,3.2,22,"A (near, Midway International Airport Terminal, S Cicero Ave A14, Chicago, IL 60629, USA",41.7850972,-87.7434571
745,D & D fresh food,NULL,3.2,34,"1249 E 87th St, Chicago, IL 60619, USA",41.7366399,-87.5931878
567,Dragon Bowl,1,3.3,143,"220 W 31st St, Chicago, IL 60616, USA",41.8384394,-87.6325554
1249,Georgio's on Division,1,3.3,104,"11 W Division St, Chicago, IL 60610, USA",41.903807,-87.6291894
325,Plenty Chinese Restaurant,2,3.3,149,"2002 W Montrose Ave, Chicago, IL 60618, USA",41.9617399,-87.6793778
683,Aloha Poke Co.,2,3.3,181,"131 N Clinton St, Chicago, IL 60661, USA",41.8840768,-87.6408517
829,Rubys Soulfood Express,2,3.3,118,"11028 S Halsted St, Chicago, IL 60628, USA",41.6933362,-87.6426682
175,Sharks fish and chicken,NULL,3.3,16,"6237 S Union Ave, Chicago, IL 60621, USA",41.7804914,-87.6424643
339,Sam Sylk's Chicken And Fish Chicago,NULL,3.3,26,"857 W 115th St, Chicago, IL 60643, USA",41.6841884,-87.6443257
626,Cafe Michelle @Dusable Harbor,NULL,3.3,109,"200 N Lakefront Trl, Chicago, IL 60601, USA",41.8861129,-87.613026
668,The Chicago Lighthouse,NULL,3.3,33,"1850 W Roosevelt Rd, Chicago, IL 60608, USA",41.8672328,-87.6724245
1328,Amazon Go,NULL,3.3,6,"600 W Chicago Ave, Chicago, IL 60654, USA",41.8975334,-87.6433858
7,Taco Bell Cantina,1,3.4,88,"941 W Randolph St, Chicago, IL 60607, USA",41.8840948,-87.6514141
155,Nadia Fish & Chicken,1,3.4,134,"2704 E 75th St #3822, Chicago, IL 60649, USA",41.7601038,-87.5584428
350,Pizza Nova Express,1,3.4,298,"3836 W 79th St, Chicago, IL 60652, USA",41.7497123,-87.7196237
989,Pizza Hut Express,1,3.4,20,"Citigroup Center, 500 W Madison St Suite F-009, Chicago, IL 60661, USA",41.8823062,-87.6403882
189,Beggars Pizza,2,3.4,536,"10314 S Halsted St, Chicago, IL 60628, USA",41.7064084,-87.6432373
586,NYFC Restaurant & Fresh Market,2,3.4,17,"2748 W Madison St, Chicago, IL 60612, USA",41.8814313,-87.6959238
628,Jamison's Soul Food,2,3.4,767,"1800 W 87th St, Chicago, IL 60620, USA",41.7359681,-87.6684095
893,Thai 55 Restaurant,2,3.4,358,"1607 E 55th St, Chicago, IL 60615, USA",41.7950262,-87.5862942
8,Curramba Colombian Restaurant Bar,NULL,3.4,125,"2701 W Division St, Chicago, IL 60622, USA",41.90265,-87.6945701
67,Harolds Chicken 95th,NULL,3.4,255,"2237 95th St, Chicago, IL 60643, USA",41.7208191,-87.6787551
85,Harold's Chicken on Broadway,NULL,3.4,236,"3933 North Broadway, Chicago, IL 60613, USA",41.9537377,-87.6498499
108,L P SUBMARINE,NULL,3.4,17,"1/2, 513 E 47th St, Chicago, IL 60653, USA",41.8092594,-87.6132603
139,Reggio's Pizza Express,NULL,3.4,827,"10000 Bessie Coleman Dr, Chicago, IL 60666, USA",41.9798438,-87.9100677
375,Morrison's Soul Food,NULL,3.4,66,"8052 S Racine Ave, Chicago, IL 60620, USA",41.7471001,-87.654009
807,Soul Food Heaven,NULL,3.4,40,"641 E 75th St, Chicago, IL 60619, USA",41.7583074,-87.6086867
76,Burger King,1,3.5,448,"7523 N Clark St, Chicago, IL 60626, USA",42.0184772,-87.6756989
167,Hook Fish & Chicken,1,3.5,70,"810 W 59th St, Chicago, IL 60621, USA",41.7873498,-87.6456574
174,Pizza Hut,1,3.5,531,"2042 W 47th St, Chicago, IL 60609, USA",41.80881,-87.676289
581,Vee-Vee's African Restaurant,1,3.5,132,"6232 N Broadway, Chicago, IL 60660, USA",41.9956207,-87.660759
632,Village Pizza,1,3.5,176,"925 N Ashland Ave, Chicago, IL 60622, USA",41.8986978,-87.6671187
4,Reggio's Pizza,2,3.5,367,"8548 S Cottage Grove Ave, Chicago, IL 60619, USA",41.7388577,-87.6055163
835,May Flower Chinese Restaurant,2,3.5,295,"2225 S Wentworth Ave, Chicago, IL 60616, USA",41.8521575,-87.6318511
1013,Udupi Palace Restaurant | Best vegetarian Indian Restaurant in Chicago,2,3.5,1040,"2543 W Devon Ave, Chicago, IL 60659, USA",41.997479,-87.694005
951,Pablo's Tacos,NULL,3.5,8,"4106 S Archer Ave, Chicago, IL 60632, USA",41.8189557,-87.6965688
1049,La Michoacana Ice Cream Shop,NULL,3.5,107,"3591 N Milwaukee Ave, Chicago, IL 60641, USA",41.946053,-87.7349529
1194,African Food Palace,NULL,3.5,53,"8918 S Commercial Ave, Chicago, IL 60617, USA",41.7330771,-87.5516181
1302,Jordan's Fish & Chicken,NULL,3.5,13,"3357 W Chicago Ave, Chicago, IL 60651, USA",41.8953002,-87.7111305
173,Harold's Chicken Shack,1,3.6,533,"808 E 79th St, Chicago, IL 60619, USA",41.7514011,-87.6047395
222,Bubblelicious Bubble Tea Millennium Park Location,1,3.6,68,"179 Michigan Ave, Chicago, IL 60601, USA",41.8853107,-87.6242561
231,Deli Boutique Wine & Spirits,1,3.6,45,"2318 N Clark St, Chicago, IL 60614, USA",41.9241865,-87.639925
317,Billy's Prime Fish & Hoagie,1,3.6,144,"8022 S Halsted St, Chicago, IL 60620, USA",41.748092,-87.644252
557,Jimmy John's,1,3.6,106,"2048 W Division St, Chicago, IL 60622, USA",41.9033165,-87.6791385
1038,Congress Pizzeria,1,3.6,497,"5925 W Diversey Ave, Chicago, IL 60639, USA",41.9310561,-87.7745727
1086,Late Night Thai,1,3.6,203,"1624 W Belmont Ave, Chicago, IL 60657, USA",41.9398343,-87.669727
1312,Great Wall,1,3.6,101,"6748 N Sheridan Rd, Chicago, IL 60626, USA",42.0049025,-87.6611734
12,Bureau Bar and Restaurant,2,3.6,457,"2115 S State St, Chicago, IL 60616, USA",41.8537198,-87.6268692
23,Porkchop West Loop,2,3.6,277,"1132 W Grand Ave, Chicago, IL 60642, USA",41.8912856,-87.6560025
313,O'Briens Riverwalk Cafe,2,3.6,612,"45 E Riverwalk S, Chicago, IL 60601, USA",41.888012,-87.6262098
720,Italian Fiesta Pizzeria - 47th St,2,3.6,930,"1306 E 47th St, Chicago, IL 60653, USA",41.8103516,-87.595066
1044,HUNAN BISTRO,2,3.6,8,"2414 S Wentworth Ave, Chicago, IL 60616, USA",41.8486637,-87.632203
1281,Cite,3,3.6,818,"Lake Point Tower, 505 N Lake Shore Dr 70th Floor, Chicago, IL 60611, USA",41.8915839,-87.6126983
203,Harold's Chicken Shack #23,NULL,3.6,113,"203 E Garfield Blvd, Chicago, IL 60637, USA",41.7941811,-87.6204402
223,Island Fish & Chicken,NULL,3.6,8,"1359 W 79th St, Chicago, IL 60620, USA",41.7502446,-87.6584092
453,"Super JJ, Fish, Chicken & Ribs",NULL,3.6,8,"Mall Food Court, 7601 S Cicero Ave, Chicago, IL 60652, USA",41.7554539,-87.7371302
665,Lawndale Christian Health Center - Breakthrough,NULL,3.6,28,"3219 W Carroll Ave, Chicago, IL 60624, USA",41.8873443,-87.7070999
1042,Taco Spot,NULL,3.6,41,"311 W 79th St, Chicago, IL 60620, USA",41.7505072,-87.6324416
1292,Wild Taco,NULL,3.6,108,"1529 N Wells St, Chicago, IL 60611, USA",41.9099937,-87.6344271
86,Jet's Pizza,1,3.7,19,"7070 N Clark St, Chicago, IL 60626, USA",42.0112547,-87.6745823
225,Harold's Chicken Shack West Loop,1,3.7,1052,"1501 W Madison St, Chicago, IL 60607, USA",41.8812515,-87.6649022
307,JUST PIZZA,1,3.7,57,"4349 W Fullerton Ave, Chicago, IL 60639, USA",41.924153,-87.7360392
343,Monica's Pizza,1,3.7,194,"6448 S Pulaski Rd, Chicago, IL 60629, USA",41.7753564,-87.7231757
376,Subway,1,3.7,257,"5973 W Madison St, Chicago, IL 60644, USA",41.8798687,-87.7744499
412,Trino's Pizza,1,3.7,63,"2001 W 35th St, Chicago, IL 60609, USA",41.8302175,-87.6754364
625,Pizza Nova,1,3.7,781,"5849 S Pulaski Rd, Chicago, IL 60629, USA",41.7861373,-87.7223796
673,Taco Bell,1,3.7,668,"3350 W Roosevelt Rd, Chicago, IL 60624, USA",41.8667577,-87.7103211
899,Pizza Nova - W 18th St,1,3.7,449,"1842 W 18th St, Chicago, IL 60608, USA",41.8578143,-87.6727865
1028,BoJono's Pizzeria,1,3.7,106,"4185 N Clarendon Ave, Chicago, IL 60613, USA",41.9581017,-87.6496586
1079,Si-Pie Pizzeria - Lincoln Square,1,3.7,3,"5505 N Lincoln Ave, Chicago, IL 60625, USA",41.9815618,-87.6925322
1233,Naty's Pizza,1,3.7,635,"5129 S Kedzie Ave, Chicago, IL 60632, USA",41.7999554,-87.7036216
103,Tony's Philly Steak Hooks Fish & Chicken,2,3.7,50,"4355 S Cottage Grove Ave, Chicago, IL 60653, USA",41.81521,-87.6060828
113,Harold's Chicken Shack #36 (Wicker Park),2,3.7,447,"1361 N Milwaukee Ave, Chicago, IL 60622, USA",41.906721,-87.671377
187,Sarpino's Pizzeria Wrigleyville,2,3.7,273,"1435 W Montrose Ave, Chicago, IL 60613, USA",41.9612694,-87.6664963
221,Harold's Chicken,2,3.7,165,"1711 E 87th St, Chicago, IL 60617, USA",41.7367285,-87.5822504
261,TRUTH Ribzzz & More,2,3.7,119,"11346 S Michigan Ave, Chicago, IL 60628, USA",41.687596,-87.6210889
403,Volcano Sushi 90 -Taylor St,2,3.7,364,"1062 W Taylor St, Chicago, IL 60607, USA",41.8695943,-87.6535489
186,Gallery Food,NULL,3.7,14,"10701 S Wentworth Ave, Chicago, IL 60628, USA",41.6997015,-87.6279498
236,Harold's Chicken #55 Express,NULL,3.7,385,"8653 S State St, Chicago, IL 60619, USA",41.7367169,-87.6239159
249,Roots & Vine Produce And Cafe,NULL,3.7,3,"2016 W 119th St, Chicago, IL 60643, USA",41.6773644,-87.671226
281,Citgo,NULL,3.7,99,"1535 W Grand Ave, Chicago, IL 60642, USA",41.8907512,-87.6667851
293,La Baguette Bakery,NULL,3.7,115,"5859 S Kedzie Ave, Chicago, IL 60629, USA",41.786453,-87.702933
400,Gordon Cafe,NULL,3.7,7,"929 E 57th St, Chicago, IL 60637, USA",41.7912637,-87.6024796
612,Braseritos Restaurant,NULL,3.7,162,"4107 W North Ave, Chicago, IL 60639, USA",41.9095516,-87.7293052
735,Vista Carry Out,NULL,3.7,22,"233 N Michigan Ave, Chicago, IL 60601, USA",41.8867854,-87.6232115
1071,Piranhas Grill,NULL,3.7,47,"2351 W Grand Ave, Chicago, IL 60612, USA",41.8905122,-87.6862585
1139,Sharks Fish & chicken Grill,NULL,3.7,97,"5053 W Division St, Chicago, IL 60651, USA",41.9021949,-87.7530515
1252,LIL Country Soulfood,NULL,3.7,24,"2801 E 83rd St, Chicago, IL 60617, USA",41.7444139,-87.5562341
83,Sharks Fish Chicken,1,3.8,542,"9800 S Halsted St, Chicago, IL 60628, USA",41.7157213,-87.6435867
107,Whale Fish & Chicken,1,3.8,770,"4955 W Madison St, Chicago, IL 60644, USA",41.8801291,-87.7491337
191,Wendy's,1,3.8,871,"2215 N Washtenaw Ave, Chicago, IL 60647, USA",41.9222383,-87.695264
399,Three Harmony Chinese Restaurant,1,3.8,151,"4546 N Magnolia Ave, Chicago, IL 60640, USA",41.9649899,-87.6612744
477,Jerk Taco Man Caribbean BBQ,1,3.8,2933,"7723 S State St, Chicago, IL 60619, USA",41.7538199,-87.6243938
494,Van Phat Chinese Restaurant,1,3.8,103,"2750 N Kimball Ave, Chicago, IL 60647, USA",41.9316643,-87.7125945
549,Boar's Head Cafe,1,3.8,12,"125 S Wacker Dr Suite 110, Chicago, IL 60606, USA",41.8797063,-87.6364113
574,Erik's Deli & Eatery,1,3.8,22,"525 W Van Buren St #100, Chicago, IL 60607, USA",41.8766621,-87.6401615
667,See Thru Chinese Kitchen,1,3.8,19,"800 N Kedzie Ave, Chicago, IL 60651, USA",41.8958474,-87.7074375
712,Left Coast Food Juice,1,3.8,72,"151 N Franklin St Suite 100, Chicago, IL 60606, USA",41.8848234,-87.6351433
719,China Cafe,1,3.8,95,"4818 N Sheridan Rd, Chicago, IL 60640, USA",41.9695985,-87.6553715
742,Juanita's Mexican Foods,1,3.8,134,"2955 W 59th St, Chicago, IL 60629, USA",41.7862363,-87.6982133
815,Angelo's Stuffed Pizza,1,3.8,342,"4850 S Pulaski Rd, Chicago, IL 60632, USA",41.8045371,-87.7237743
833,Peeples Taco Place,1,3.8,808,"5944 W Chicago Ave, Chicago, IL 60651, USA",41.8948757,-87.774112
834,The Jerk Shop,1,3.8,173,"5614 W Chicago Ave, Chicago, IL 60651, USA",41.895,-87.7661111
837,Mr Taco's Restaurant,1,3.8,55,"1640 W Chicago Ave, Chicago, IL 60622, USA",41.8963116,-87.6688464
870,China Gourmet,1,3.8,311,"7100 N Clark St, Chicago, IL 60626, USA",42.0116006,-87.674766
905,Louisiana Famous Fried Chicken,1,3.8,154,"1554 W Marquette Rd, Chicago, IL 60636, USA",41.7725078,-87.6637515
936,Izalco Restaurant,1,3.8,712,"4377 W 26th St, Chicago, IL 60623, USA",41.8439687,-87.7339779
1061,Italian Fiesta Pizzeria,1,3.8,1384,"1919 E 71st St, Chicago, IL 60649, USA",41.7659521,-87.5777223
1093,Pepe's Mexican,1,3.8,513,"954 W 87th St, Chicago, IL 60620, USA",41.7362473,-87.6482605
1205,Little Clown Pizza,1,3.8,129,"2801 N Central Park Ave, Chicago, IL 60618, USA",41.9320382,-87.7170005
1336,Hoe Toy Chop Suey,1,3.8,563,"8559 S Stony Is Ave, Chicago, IL 60617, USA",41.7389225,-87.584975
207,Gerry's Fish & Chicken,2,3.8,142,"11857 S Michigan Ave, Chicago, IL 60628, USA",41.678247,-87.620293
528,Merchants Market,2,3.8,13,"350 W Wolf Point Plaza 15th Floor, Chicago, IL 60654, USA",41.888055,-87.637906
620,Rosati's Pizza - Chicago Loop,2,3.8,305,"176 N Wells St, Chicago, IL 60606, USA",41.8852547,-87.6342033
711,Gaylord Fine Indian Cuisine,2,3.8,651,"100 E Walton St, Chicago, IL 60611, USA",41.9001206,-87.6250611
1108,Jamaican Jerk King,2,3.8,499,"206 E 35th St, Chicago, IL 60616, USA",41.8312086,-87.6214628
1188,Freshii,2,3.8,115,"835 N Michigan Ave Suite 1005, Chicago, IL 60611, USA",41.8982488,-87.6228224
1221,Maravillas Restaurant,2,3.8,650,"5506 S Lake Park Ave, Chicago, IL 60637, USA",41.7949399,-87.5878135
158,Edison Park Bowl,NULL,3.8,4,"6713 N Olmsted Ave, Chicago, IL 60631, USA",42.0025123,-87.8171307
244,Mr. Crab Fish Chicken Grill,NULL,3.8,58,"1454 W 95th St, Chicago, IL 60643, USA",41.7215955,-87.6599575
372,La Borra Cafe,NULL,3.8,38,"10 E Delaware Pl, Chicago, IL 60611, USA",41.8993009,-87.6279319
525,Kimberli Sushi and Thai Cuisine,NULL,3.8,156,"2547 W Lawrence Ave Unit B, Chicago, IL 60625, USA",41.9681962,-87.6933586
622,El Capitan Restaurant,NULL,3.8,64,"3758 W Armitage Ave, Chicago, IL 60647, USA",41.917334,-87.7214331
700,Jerk 48 West,NULL,3.8,264,"4335 W Madison St, Chicago, IL 60624, USA",41.8804537,-87.7344517
934,Maddanthony's Bar & Grill,NULL,3.8,15,"Chicago, IL 60632, USA",41.8083903,-87.7081144
1106,La Pulqueria ( Pilsen ),NULL,3.8,486,"2501 S Western Ave, Chicago, IL 60608, USA",41.8464137,-87.6851921
1150,Bureau Pizza Co.,NULL,3.8,57,"719 S State St, Chicago, IL 60605, USA",41.8726379,-87.6271594
1222,Aguela's Restaurant,NULL,3.8,6,"3445 W 51st St, Chicago, IL 60632, USA",41.8006321,-87.7104444
1282,Lotus Chop Suey,NULL,3.8,67,"814 E 79th St, Chicago, IL 60619, USA",41.7514223,-87.6044679
1297,Rickette's,NULL,3.8,98,"1514 W Taylor St, Chicago, IL 60607, USA",41.869508,-87.664754
73,Dunkin',1,3.9,184,"6001 W Addison St, Chicago, IL 60634, USA",41.9456199,-87.7766816
93,Harold's Chicken Shack #52,1,3.9,436,"7200 S Western Ave, Chicago, IL 60636, USA",41.7627387,-87.68363
109,Capital One Cafe,1,3.9,67,"100 S State St, Chicago, IL 60603, USA",41.8805444,-87.6280832
122,Golden Hook Fish & Chicken,1,3.9,214,"5215 W Chicago Ave, Chicago, IL 60651, USA",41.8946997,-87.7566154
200,Shark's Fish & Chicken,1,3.9,260,"855 W 87th St, Chicago, IL 60620, USA",41.735661,-87.6458
426,Potbelly,1,3.9,371,"756 E 111th St, Chicago, IL 60628, USA",41.6931249,-87.6020356
583,Old Chicago Pizza Company,1,3.9,312,"742 E 79th St #3118, Chicago, IL 60619, USA",41.7514057,-87.6060809
743,El Asador Restaurant,1,3.9,878,"4117 W 47th St #102, Chicago, IL 60632, USA",41.8075386,-87.7268257
763,Kennedy Fish & Chicken Corporation,1,3.9,520,"2425 E 72nd St, Chicago, IL 60649, USA",41.7643159,-87.5655384
768,China Ho Restaurant,1,3.9,227,"5151 S Pulaski Rd, Chicago, IL 60632, USA",41.7991437,-87.7227757
885,Dim Dim,1,3.9,306,"2820 S Wentworth Ave, Chicago, IL 60616, USA",41.841975,-87.632102
924,Maggie Gyros & Chicken,1,3.9,434,"349 E 47th St, Chicago, IL 60653, USA",41.8092678,-87.6176011
963,Maya's Pizza,1,3.9,232,"8550 S Commercial Ave, Chicago, IL 60617, USA",41.7395354,-87.5516478
965,Sabor Latino Restaurant,1,3.9,504,"3810 W North Ave, Chicago, IL 60647, USA",41.9100751,-87.7219527
980,Papa Philly & Fish,1,3.9,149,"7500 S Cottage Grove Ave, Chicago, IL 60619, USA",41.7584003,-87.6056174
994,Pepe's Mexican Restaurants,1,3.9,252,"6230 S Western Ave, Chicago, IL 60636, USA",41.7801672,-87.6838929
1152,Luna Cafe Restaurant,1,3.9,348,"63 E Harrison St, Chicago, IL 60605, USA",41.8742664,-87.6253065
1175,Fiesta Grill,1,3.9,151,"5636 Roosevelt Rd, Chicago, IL 60644, USA",41.865881,-87.7657035
1187,Luzzat,1,3.9,110,"1505 W Jarvis Ave, Chicago, IL 60626, USA",42.015882,-87.6687928
1260,Pizza Tango,1,3.9,88,"2859 W Cermak Rd, Chicago, IL 60623, USA",41.8517684,-87.6977211
1265,Alibaba Hookah Bar,1,3.9,456,"4046 W Lawrence Ave, Chicago, IL 60630, USA",41.968312,-87.7298036
1268,Palace Gate Restaurant - Ghanaian cuisine,1,3.9,110,"4548 N Magnolia Ave, Chicago, IL 60640, USA",41.9649875,-87.6613723
1298,Sam's Chicken & Ribs-Edgewater,1,3.9,113,"1102 W Granville Ave, Chicago, IL 60660, USA",41.9946663,-87.6586456
240,Sharks Fish & Tony's Steak,2,3.9,1187,"805 W 111th St, Chicago, IL 60643, USA",41.6920429,-87.6426778
306,La France Bakery,2,3.9,159,"5405 S Kedzie Ave, Chicago, IL 60632, USA",41.7951164,-87.7032362
360,El Basurero,2,3.9,428,"4781 S Archer Ave, Chicago, IL 60632, USA",41.8064615,-87.7163188
382,Alhambra Palace Restaurant,2,3.9,1613,"1240 W Randolph St, Chicago, IL 60607, USA",41.8844642,-87.6582565
462,Khan Barbeque Restaurant,2,3.9,831,"2401 W Devon Ave, Chicago, IL 60659, USA",41.997522,-87.690192
473,La Villita Restaurant,2,3.9,512,"3324 W 26th St, Chicago, IL 60623, USA",41.8446086,-87.7085613
495,Plymouth Restaurant & Rooftop Bar,2,3.9,1106,"327 S Plymouth Ct, Chicago, IL 60604, USA",41.8774756,-87.6285532
532,Waldo Cooneys Pizza,2,3.9,435,"2410 W 111th St, Chicago, IL 60655, USA",41.6919444,-87.6819444
615,El Barco Mariscos,2,3.9,1935,"1035 N Ashland Ave, Chicago, IL 60622, USA",41.900736,-87.6672159
733,Trader Todd's,2,3.9,720,"3216 N Sheffield Ave, Chicago, IL 60657, USA",41.9404424,-87.6543697
757,Dao Thai Restaurant and Noodle Palace,2,3.9,778,"230 E Ohio St, Chicago, IL 60611, USA",41.8926967,-87.6215025
787,TGI Fridays,2,3.9,2446,"153 E Erie St, Chicago, IL 60611, USA",41.894007,-87.623429
871,New Chinatown Restaurant,2,3.9,62,"207 W Cermak Rd #1913, Chicago, IL 60616, USA",41.8526575,-87.6323585
918,Sky Thai Cuisine,2,3.9,15,"1320 W Devon Ave, Chicago, IL 60660, USA",41.998344,-87.663798
962,Jade Palace,2,3.9,173,"2551 S Kedzie Ave, Chicago, IL 60623, USA",41.844816,-87.704924
1214,Skybridge Restaurant & Bar,2,3.9,518,"5600 Mannheim Rd, Chicago, IL 60666, USA",41.9739608,-87.9059924
1262,Lalo's on Maxwell,2,3.9,1307,"733 W Maxwell St, Chicago, IL 60607, USA",41.8645674,-87.646443
1,Golden Gai Sushi,NULL,3.9,32,"1144 W 18th St, Chicago, IL 60608, USA",41.8581737,-87.6552422
133,Hollywood Food Mart,NULL,3.9,8,"606 E 79th St, Chicago, IL 60619, USA",41.7514215,-87.6096305
188,Sun Submarine,NULL,3.9,187,"321 N Laramie Ave, Chicago, IL 60644, USA",41.8863695,-87.7550735
262,Sharks (Fish & Chicken),NULL,3.9,39,"344 E 95th St, Chicago, IL 60619, USA",41.7220936,-87.6148992
300,Joe Willies Seafood WestTown,NULL,3.9,262,"337 S Sacramento Blvd, Chicago, IL 60612, USA",41.8762353,-87.7006593
438,Le Paris Bakery,NULL,3.9,63,"5434 S Pulaski Rd, Chicago, IL 60632, USA",41.7970224,-87.7238727
555,Ramirez Fast Food,NULL,3.9,109,"1521 W Grand Ave, Chicago, IL 60642, USA",41.8908333,-87.6663889
565,K I AFRICAN RESTAURANT,NULL,3.9,48,"7137 N Clark St, Chicago, IL 60626, USA",42.012444,-87.6744097
606,Fulton Market Kitchen,NULL,3.9,140,"311 N Sangamon St, Chicago, IL 60607, USA",41.8872126,-87.6506241
1039,Seafood city,NULL,3.9,51,"1233 W 99th St, Chicago, IL 60643, USA",41.7138854,-87.6539809
1218,JERK UR SOUL,NULL,3.9,26,"1442 W 103rd St, Chicago, IL 60643, USA",41.7069747,-87.6592586
71,Domino's Pizza,1,4,543,"4608 W Fullerton Ave, Chicago, IL 60639, USA",41.9247098,-87.7420172
125,Tea Ninja,1,4,147,"3139 N Broadway, Chicago, IL 60657, USA",41.9387908,-87.6442114
128,Hilltop Restaurant,1,4,237,"2800 W Foster Ave, Chicago, IL 60625, USA",41.9759717,-87.6991742
131,Chicago's Chicken Coop 87th Street,1,4,535,"3300 W 87th St, Chicago, IL 60652, USA",41.735471,-87.705279
164,Sharks Fish & Chicken,1,4,370,"250 E 35th St, Chicago, IL 60616, USA",41.831278,-87.619792
197,Krispy Krunchy Chicken,1,4,163,"1840 W Peterson Ave, Chicago, IL 60660, USA",41.9909834,-87.6767208
298,Giovanni's Pizza,1,4,208,"7004 W Diversey Ave, Chicago, IL 60707, USA",41.9310049,-87.8012886
377,Los Arcos,1,4,326,"5525 N Clark St, Chicago, IL 60640, USA",41.9824571,-87.6682567
393,Di Vita's Restaurant,1,4,181,"3753 W Belmont Ave, Chicago, IL 60618, USA",41.9389089,-87.7217062
394,Yummy Thai,1,4,303,"1418 W Taylor St, Chicago, IL 60607, USA",41.869445,-87.6624442
416,Three Happiness Restaurant,1,4,1081,"209 W Cermak Rd, Chicago, IL 60616, USA",41.8526308,-87.632446
569,Salam Restaurant,1,4,1194,"4636 N Kedzie Ave, Chicago, IL 60625, USA",41.965781,-87.708845
674,Gourmet Food,1,4,125,"210 W 23rd St, Chicago, IL 60616, USA",41.851122,-87.632482
730,Pepe's Mexican Restaurant,1,4,455,"7026 W Archer Ave, Chicago, IL 60638, USA",41.7922619,-87.7975091
759,Happy Cafe,1,4,50,"2351 S Wentworth Ave, Chicago, IL 60616, USA",41.8495959,-87.6317108
762,Big Tony's Pizza II,1,4,176,"3732 W 59th St, Chicago, IL 60629, USA",41.7861365,-87.716935
771,Spinzer Restaurant,1,4,559,"2331 W Devon Ave, Chicago, IL 60659, USA",41.9976579,-87.6888295
774,May Flower,1,4,239,"5240 N Pulaski Rd M, Chicago, IL 60630, USA",41.9767805,-87.7287809
788,Mei Shung,1,4,165,"5511 N Broadway, Chicago, IL 60640, USA",41.9822029,-87.6596987
801,Guapo Taco Tacos De Canasta,1,4,719,"2430 W 47th St, Chicago, IL 60632, USA",41.8085387,-87.6857217
818,Western Tacos,1,4,940,"7151 S Western Ave, Chicago, IL 60636, USA",41.7632532,-87.6827778
879,65 Express 201 W. Madison St,1,4,252,"201 W Madison St, Chicago, IL 60606, USA",41.8818893,-87.6344481
1089,Victor's Restaurant Pizza,1,4,186,"5418 W North Ave, Chicago, IL 60639, USA",41.9097499,-87.7613895
1147,Wing Wah Restaurant Chinese,1,4,107,"6452 W 63rd St, Chicago, IL 60638, USA",41.77797,-87.7834019
1159,Eat First,1,4,229,"3337 W Belmont Ave, Chicago, IL 60618, USA",41.9390712,-87.7115718
1224,Primo Pizza,1,4,120,"5600 N Clark St, Chicago, IL 60660, USA",41.9836127,-87.669089
38,Foxtrot,2,4,42,"1019 W Lake St, Chicago, IL 60607, USA",41.8853596,-87.6529479
229,Wingstop,2,4,116,"4547 N Broadway, Chicago, IL 60640, USA",41.9649712,-87.6568561
304,Lacoco's Pizza & Sports Club,2,4,1261,"3350 W 47th St, Chicago, IL 60632, USA",41.8083803,-87.7082875
349,Diva Thai & Sushi Bar,2,4,492,"3542 N Halsted St, Chicago, IL 60657, USA",41.9467119,-87.649719
505,Pizza by Geneo's,2,4,249,"2945 W 59th St, Chicago, IL 60629, USA",41.7862318,-87.6977969
544,The Farehouse Market,2,4,21,"600 W Chicago Ave, Chicago, IL 60654, USA",41.8975334,-87.6433858
571,La Fogata,2,4,203,"3433 W Lawrence Ave #5116, Chicago, IL 60625, USA",41.9682122,-87.7147562
593,Min Min Asian Cafe,2,4,108,"1465 W Irving Park Rd, Chicago, IL 60613, USA",41.9541143,-87.6666783
603,Firehouse Bakery & Grill,2,4,24,"720 E 75th St, Chicago, IL 60619, USA",41.7586723,-87.606991
691,Mi Tierra En La Villita (MEXICO IN CHICAGO),2,4,2379,"2528 S Kedzie Ave, Chicago, IL 60623, USA",41.845389,-87.705438
860,Pearl's Place Restaurant,2,4,2848,"3901 S Michigan Ave, Chicago, IL 60653, USA",41.8235863,-87.6227774
861,Gianna's Pizza,2,4,259,"1519 E 87th St, Chicago, IL 60619, USA",41.736538,-87.587264
890,Original Triple Crown Restaurant,2,4,225,"211 W 22nd Pl, Chicago, IL 60616, USA",41.852055,-87.6325827
946,La Fiesta Mexican Restaurant,2,4,597,"3333 W 111th St A, Chicago, IL 60655, USA",41.691204,-87.7042525
953,Lao Sze Chuan,2,4,1166,"2172 S Archer Ave, Chicago, IL 60616, USA",41.8532922,-87.634957
981,Hubbard Inn,2,4,902,"110 W Hubbard St, Chicago, IL 60654, USA",41.8901573,-87.6316291
992,Nine Thai Cuisine,2,4,114,"2349 N Clark St, Chicago, IL 60614, USA",41.9251453,-87.6400317
995,Rosati's Pizza,2,4,130,"3150 W 111th St, Chicago, IL 60655, USA",41.6919649,-87.7004606
1010,Thai Classic Restaurant,2,4,8,"3332 N Clark St, Chicago, IL 60657, USA",41.942571,-87.6530167
1112,Bamboo Garden Restaurant,2,4,27,"3203 N Clark St, Chicago, IL 60657, USA",41.9401826,-87.6506281
1134,Uncle Joe's Jerk Chicken Hyde Park,2,4,930,"1461 E Hyde Park Blvd, Chicago, IL 60615, USA",41.8022011,-87.589419
1306,The Mukase African Restaurant,2,4,263,"1363 W Wilson Ave, Chicago, IL 60640, USA",41.965178,-87.6648019
1314,La Lagartija Taqueria,2,4,369,"132 S Ashland Ave, Chicago, IL 60607, USA",41.8792901,-87.6669301
707,Wicker Park Seafood & Sushi Bar,3,4,1191,"10000 West O'Hare Avenue, Terminal 2, main, Chicago, IL 60666, USA",41.9767501,-87.9058553
136,Rehmania Lupo's,NULL,4,1,"7055 S Halsted St, Chicago, IL 60621, USA",41.7655289,-87.6442428
159,Shrimps Seafood & Chicken/Tony's Gyros & Philly,NULL,4,257,"8153 S Cottage Grove Ave, Chicago, IL 60619, USA",41.7460012,-87.6045441
176,Super Mall,NULL,4,2598,"5220 S Pulaski Rd, Chicago, IL 60632, USA",41.7980556,-87.725
216,Paleteria La Ceiba,NULL,4,3,"5858 W Grand Ave, Chicago, IL 60639, USA",41.9202958,-87.7729527
256,JJ FISH AND CHICKEN,NULL,4,43,"47 W 79th St, Chicago, IL 60620, USA",41.750571,-87.6264476
278,Joy Fish,NULL,4,190,"9512 S Halsted St, Chicago, IL 60628, USA",41.7211116,-87.6436844
404,Gari Sushi Chicago,NULL,4,3,"2507 W Fullerton Ave, Chicago, IL 60647, USA",41.9246866,-87.6902192
440,bb.q Chicken Edgewater Beach,NULL,4,59,"1103 W Bryn Mawr Ave, Chicago, IL 60660, USA",41.9835543,-87.6582335
503,Volcano Sushi Restaurant,NULL,4,70,"2521 N California Ave, Chicago, IL 60647, USA",41.9273109,-87.6973571
698,Maya's Nayarit Restaurant,NULL,4,157,"4318 W Fullerton Ave, Chicago, IL 60639, USA",41.9246062,-87.7349412
794,Northwestern Medicine Prentice Women's Hospital,NULL,4,119,"250 E Superior St, Chicago, IL 60611, USA",41.8962478,-87.620725
920,LA MICHOACANA DIVERSEY,NULL,4,153,"4614 W Diversey Ave, Chicago, IL 60639, USA",41.932526,-87.7423853
1006,The Whitehall Hotel,NULL,4,1658,"105 E Delaware Pl, Chicago, IL 60611, USA",41.8990313,-87.6257347
1098,Malcolm X College,NULL,4,222,"1900 W Jackson Blvd, Chicago, IL 60612, USA",41.8778777,-87.6749639
1169,Tasty Chuanchuanxiang Hotpot,NULL,4,60,"3335 S Halsted St, Chicago, IL 60608, USA",41.8333567,-87.6460268
1234,King Soul Food Gallery,NULL,4,98,"8103 S Cottage Grove Ave, Chicago, IL 60619, USA",41.7474474,-87.6047134
1239,Urbn Bistro,NULL,4,33,"6526 W North Ave, Chicago, IL 60707, USA",41.9095072,-87.7893794
1243,New Hap's Grill,NULL,4,43,"6859 S Loomis Blvd, Chicago, IL 60636, USA",41.7687735,-87.6585707
1278,TrueNorth Cafe Hyde Park,NULL,4,70,"1323 E 57th St, Chicago, IL 60637, USA",41.7913771,-87.5938445
0,El Taco Azteca - Pilsen,1,4.1,37,"2151 W Cermak Rd, Chicago, IL 60608, USA",41.851924,-87.6802858
114,J J Fish on Kedzie,1,4.1,514,"411 S Kedzie Ave, Chicago, IL 60612, USA",41.875465,-87.705104
117,Sunny Sub,1,4.1,349,"380 E 71st St, Chicago, IL 60619, USA",41.7658486,-87.615402
126,Market Fish 2,1,4.1,608,"242 E 103rd St, Chicago, IL 60628, USA",41.7074734,-87.6169686
183,Bacci Pizzeria,1,4.1,241,"162 N Franklin St, Chicago, IL 60606, USA",41.8849875,-87.6355678
253,Lockal Bar & Quick Bite,1,4.1,63,"3256 W Lawrence Ave, Chicago, IL 60625, USA",41.9685291,-87.7107103
285,Red Eyes Cafe,1,4.1,145,"4164 N Lincoln Ave, Chicago, IL 60618, USA",41.9576592,-87.6814066
311,Kennedy Fish & Chicken,1,4.1,119,"112 E 47th St, Chicago, IL 60653, USA",41.8094625,-87.6221401
330,Sara & Lee's,1,4.1,89,"5535 W Chicago Ave, Chicago, IL 60651, USA",41.8947643,-87.7650405
348,La Piri Tacos Taqueria,1,4.1,282,"6102 W Diversey Ave, Chicago, IL 60639, USA",41.9312482,-87.7786392
401,Su Taqueria El Rey Del Taco y Sus Mariscos,1,4.1,529,"7138 N Clark St, Chicago, IL 60626, USA",42.012486,-87.6750549
414,Bacci Pizzeria - Milwaukee Ave,1,4.1,811,"4367 N Milwaukee Ave, Chicago, IL 60641, USA",41.9604876,-87.7540746
480,New York Halal Pizza,1,4.1,316,"2262 W Devon Ave, Chicago, IL 60659, USA",41.9978939,-87.6873203
570,Ghareeb Nawaz Restaurant,1,4.1,4922,"2032 W Devon Ave, Chicago, IL 60659, USA",41.9980708,-87.6815765
578,LiteHouse Whole Food Grill,1,4.1,669,"1660 E 55th St, Chicago, IL 60615, USA",41.7953414,-87.5842248
713,Siri Indian Restaurant,1,4.1,697,"1520 W Taylor St, Chicago, IL 60607, USA",41.8693845,-87.6649694
754,Pho's Spicier Thai Cuisine,1,4.1,277,"4638 N Western Ave, Chicago, IL 60625, USA",41.9659609,-87.6891601
826,Benny's Pizza,1,4.1,397,"1244 W 18th St, Chicago, IL 60608, USA",41.8580439,-87.6580779
881,Bacci Pizza,1,4.1,443,"2557 N Halsted St, Chicago, IL 60614, USA",41.928956,-87.648704
903,La Fiesta Bakery,1,4.1,294,"6424 S Pulaski Rd, Chicago, IL 60629, USA",41.7760257,-87.7230404
923,Denni's Pizza,1,4.1,47,"4030 W 26th St, Chicago, IL 60623, USA",41.8444399,-87.7257912
926,Morry's Deli,1,4.1,439,"5500 S Cornell Ave, Chicago, IL 60637, USA",41.7950886,-87.5856238
976,Nicky's Restaurant & Pancake House,1,4.1,567,"7829 S Western Ave, Chicago, IL 60620, USA",41.7510696,-87.6826377
988,Naples Pizza,1,4.1,335,"4300 S Western Ave, Chicago, IL 60609, USA",41.8155828,-87.6849845
1004,TBK Greektown (Taco Burrito King),1,4.1,867,"811 W Jackson Blvd, Chicago, IL 60607, USA",41.8778406,-87.6477525
1075,Lee's Garden Chinese Restaurant,1,4.1,230,"4240 W North Ave, Chicago, IL 60639, USA",41.9100985,-87.7326363
1125,Hing Kee,1,4.1,888,"2140 S Archer Ave, Chicago, IL 60616, USA",41.8538723,-87.633744
1155,El Mirador,1,4.1,559,"5340 W Diversey Ave, Chicago, IL 60639, USA",41.9315859,-87.7605204
1174,Cholies Pizza,1,4.1,443,"3711 W 63rd St, Chicago, IL 60629, USA",41.7786133,-87.7159347
1190,Lindo Guadalajara,1,4.1,734,"4761 N Clark St, Chicago, IL 60640, USA",41.9688075,-87.6673256
1258,Kam's Chop Suey,1,4.1,211,"7 E 83rd St, Chicago, IL 60619, USA",41.7432869,-87.6239434
1294,Nary's Grill & Pizza,1,4.1,146,"4230 S Archer Ave, Chicago, IL 60632, USA",41.8166667,-87.7005556
1319,Dynamic African Cuisine Inc,1,4.1,71,"1127 W Thorndale Ave, Chicago, IL 60660, USA",41.9896059,-87.6592843
1322,High Tide Poke,1,4.1,104,"203 N La Salle St Unit 150, Chicago, IL 60601, USA",41.886036,-87.632065
97,All Day Kitchens,2,4.1,9,"5240 N Pulaski Rd #K, Chicago, IL 60630, USA",41.976884,-87.7289793
162,Peach's Restaurant,2,4.1,1593,"4652 S King Dr, Chicago, IL 60653, USA",41.8094714,-87.6169868
235,Dock's,2,4.1,356,"321 E 35th St, Chicago, IL 60616, USA",41.8309528,-87.6182603
358,Giorgino's Pizza,2,4.1,114,"5723 W 63rd St, Chicago, IL 60638, USA",41.7778779,-87.7651653
422,Mis Tacos Mexican Food,2,4.1,304,"4308 W Marquette Rd, Chicago, IL 60629, USA",41.7714587,-87.7304594
474,Valentina Restaurant,2,4.1,443,"4506 W 63rd St, Chicago, IL 60629, USA",41.77876,-87.735416
536,El Jardin,2,4.1,478,"3335 N Clark St, Chicago, IL 60657, USA",41.942726,-87.6527613
558,Roots Handmade Pizza - South Loop,2,4.1,436,"744 S Dearborn St, Chicago, IL 60605, USA",41.8724667,-87.6293611
611,Amarit Thai and sushi,2,4.1,394,"600 S Dearborn St, Chicago, IL 60605, USA",41.8742497,-87.6294088
636,Birrieria De La Torre,2,4.1,633,"6724 S Pulaski Rd, Chicago, IL 60629, USA",41.770559,-87.722792
656,Chinese Kitchen Sushi,2,4.1,368,"420 W 31st St, Chicago, IL 60616, USA",41.8384652,-87.6374362
658,El Puerto,2,4.1,615,"3018 W 47th St, Chicago, IL 60632, USA",41.8083232,-87.699931
666,Kizin Creole Restaurant,2,4.1,291,"2311 W Howard St, Chicago, IL 60645, USA",42.019315,-87.688197
678,Lou Malnati's Pizzeria,2,4.1,136,"1520 N Damen Ave, Chicago, IL 60622, USA",41.9088134,-87.6778869
729,La Gozadera Chicago,2,4.1,373,"2542 W Peterson Ave, Chicago, IL 60659, USA",41.9907084,-87.6938011
866,Tang's Garden Restaurant,2,4.1,283,"1826 S Canal St, Chicago, IL 60616, USA",41.8567291,-87.6392805
902,Cafe Rosa,2,4.1,718,"5842 S Archer Ave, Chicago, IL 60638, USA",41.7962069,-87.7604349
917,Cocula Restaurant Commercial,2,4.1,1596,"8847 S Commercial Ave, Chicago, IL 60617, USA",41.734098,-87.551025
955,May St. Cafe and Catering,2,4.1,82,"1146 W Cermak Rd, Chicago, IL 60608, USA",41.8526467,-87.6548636
977,Sabri Nihari Restaurant,2,4.1,3268,"2502 W Devon Ave, Chicago, IL 60659, USA",41.9978139,-87.6925723
1002,Bella Luna - Bar and Pizza,2,4.1,200,"731 N Dearborn St, Chicago, IL 60654, USA",41.8957857,-87.6294197
1050,Himalayan Restaurant,2,4.1,883,"606 S Wabash Ave, Chicago, IL 60605, USA",41.8741209,-87.6262909
1052,Sushi Para M,2,4.1,780,"1633 N Milwaukee Ave, Chicago, IL 60647, USA",41.9111499,-87.6784264
1058,Chop Shop,2,4.1,330,"2033 W North Ave, Chicago, IL 60647, USA",41.910152,-87.6787659
1062,Williams Inn Pizza & Sports Bar,2,4.1,202,"2210 S Michigan Ave, Chicago, IL 60616, USA",41.8525276,-87.6240463
1119,The New Congress Pizza,2,4.1,27,"3737 W Grand Ave, Chicago, IL 60651, USA",41.9038835,-87.7212519
1123,Moretti's Pizzeria & Bar - Lincoln Park,2,4.1,441,"2251 N Lincoln Ave, Chicago, IL 60614, USA",41.9231633,-87.645351
1151,Naty's Pizza 26st,2,4.1,229,"3849 W 26th St #3810, Chicago, IL 60623, USA",41.8441262,-87.7215376
1178,Edie's All Day Cafe & Bar,2,4.1,207,"675 N Wells St, Chicago, IL 60654, USA",41.8946214,-87.6339321
1225,Berghoff Cafe,2,4.1,1645,"Terminal 1 Concourse C, Gate C26, 10000 W Balmoral Ave, Chicago, IL 60666, USA",41.9804815,-87.9099897
1269,Barraco's Pizza,2,4.1,648,"2105 W 95th St, Chicago, IL 60643, USA",41.7208404,-87.6750974
1280,Imperial Restaurant,2,4.1,1065,"2100 S Archer Ave, Chicago, IL 60616, USA",41.8545505,-87.6322801
1304,La Bruquena,2,4.1,480,"2726 W Division St, Chicago, IL 60622, USA",41.9031194,-87.6955417
1327,Oberoi's Indian Food - North Bell,2,4.1,239,"6407 N Bell Ave, Chicago, IL 60645, USA",41.9980984,-87.6860662
1341,Reza's Restaurant,2,4.1,1674,"5255 N Clark St, Chicago, IL 60640, USA",41.977847,-87.668018
933,Osteria del Pastaio,3,4.1,267,"111 E Chestnut St, Chicago, IL 60611, USA",41.898257,-87.6253351
1172,The Lakefront Restaurant at Theater on the Lake,3,4.1,300,"2401 N Lake Shore Dr, Chicago, IL 60614, USA",41.9269518,-87.6308916
44,Mobil,NULL,4.1,83,"7201 N Clark St, Chicago, IL 60626, USA",42.0128082,-87.6744159
55,Cafe Descartes,NULL,4.1,31,"5500 N St Louis Ave, Chicago, IL 60625, USA",41.9815768,-87.7181204
64,Brody's Fish & Chicken,NULL,4.1,56,"7127 S State St, Chicago, IL 60619, USA",41.7647902,-87.6245606
237,Don Pan Bakery,NULL,4.1,28,"5154 S Kedzie Ave, Chicago, IL 60632, USA",41.7992055,-87.7039021
316,Bitoy Bistro,NULL,4.1,8,"5946 W Chicago Ave, Chicago, IL 60651, USA",41.8949182,-87.7742288
318,Eighty4Fifty8,NULL,4.1,24,"8458 S Green St, Chicago, IL 60620, USA",41.7398029,-87.6450852
388,Golden Dragon,NULL,4.1,119,"2459 W Madison St, Chicago, IL 60612, USA",41.8809813,-87.6886736
489,New China Tea Garden Chop Suey,NULL,4.1,23,"11342 S Michigan Ave, Chicago, IL 60628, USA",41.6876724,-87.6212025
641,Ace Pizza,NULL,4.1,120,"27 E 71st St, Chicago, IL 60619, USA",41.7652263,-87.6237299
685,Grant Park Bistro,NULL,4.1,201,"800 S Michigan Ave, Chicago, IL 60605, USA",41.8716758,-87.6244647
851,Quantum Cafe,NULL,4.1,20,"Eckhardt, 5640 S Ellis Ave, Chicago, IL 60637, USA",41.7919972,-87.6015751
911,Conn's Cafe & Catering,NULL,4.1,16,"1535 W Devon Ave, Chicago, IL 60660, USA",41.9979733,-87.6693065
975,Osas African Restaurant - Nigerian cuisine,NULL,4.1,178,"1027 W Wilson Ave, Chicago, IL 60640, USA",41.9652623,-87.6559435
1105,BJ's Market & Bakery,NULL,4.1,240,"10000 West O'Hare Ave, Terminal 3, Concourse K, Gate K15, Chicago, IL 60666, USA",41.9756135,-87.9005718
21,New Archview Restaurant,1,4.2,1067,"3480 S Archer Ave, Chicago, IL 60608, USA",41.8307338,-87.6774711
35,Cafe Press Chicago,1,4.2,125,"800 S Clark St, Chicago, IL 60605, USA",41.8717573,-87.630913
104,Pure Tea,1,4.2,26,"2105 S Jefferson St unit B, Chicago, IL 60616, USA",41.8539185,-87.6415922
147,Pop-N-Pizza,1,4.2,279,"3701 W 59th St, Chicago, IL 60629, USA",41.7859411,-87.7157224
151,Marlon's Chicken,1,4.2,342,"602 E 75th St, Chicago, IL 60619, USA",41.7586678,-87.6100262
172,Chuck's Pizza,1,4.2,354,"10123 S Western Ave, Chicago, IL 60643, USA",41.709335,-87.681362
248,Cafe #10,1,4.2,281,"2625 N Harlem Ave, Chicago, IL 60707, USA",41.9279704,-87.806134
321,Tropical Smoothie Cafe,1,4.2,15,"1509 N Milwaukee Ave, Chicago, IL 60622, USA",41.9090365,-87.6749349
335,Taco Burrito King,1,4.2,842,"5413 W Belmont Ave #4127, Chicago, IL 60641, USA",41.9384457,-87.7623499
386,Daley's Restaurant,1,4.2,2188,"6257 S Cottage Grove Ave, Chicago, IL 60637, USA",41.780612,-87.6056668
398,Corner Bakery,1,4.2,188,"120 S La Salle St, Chicago, IL 60603, USA",41.88007,-87.6325512
410,Blue Frog Thai Noodle & Rice,1,4.2,134,"2951 S Archer Ave, Chicago, IL 60608, USA",41.8406802,-87.6593854
475,Deli King Inc,1,4.2,223,"410 W 71st St, Chicago, IL 60621, USA",41.765506,-87.635222
519,Celis Pizzeria,1,4.2,126,"2605 S Kostner Ave, Chicago, IL 60623, USA",41.8438293,-87.734143
534,Pittsfield Cafe,1,4.2,995,"55 East Washington Street Lobby, Chicago, IL 60602, USA",41.8830558,-87.6257731
554,Dante's Pizzeria,1,4.2,85,"3028 W Armitage Ave, Chicago, IL 60647, USA",41.9175945,-87.7036558
577,Hearty Cafe pancake house,1,4.2,938,"9623 S Western Ave, Chicago, IL 60643, USA",41.7182851,-87.6815585
580,G T's Fast Food,1,4.2,197,"5016 N Pulaski Rd, Chicago, IL 60630, USA",41.972416,-87.7283875
647,B.B.Q. King,1,4.2,433,"2148 S Archer Ave, Chicago, IL 60616, USA",41.8537151,-87.6341067
662,Golden Apple Grill & Breakfast House,1,4.2,1255,"2971 N Lincoln Ave, Chicago, IL 60657, USA",41.9360044,-87.6632145
680,Tapia's Pizza on Howard,1,4.2,111,"2349 W Howard St, Chicago, IL 60645, USA",42.019203,-87.689609
752,ChipMonks,1,4.2,164,"438 W Diversey Pkwy, Chicago, IL 60614, USA",41.9329966,-87.6409901
850,Guerrero's Pizza,1,4.2,232,"2024 S California Ave, Chicago, IL 60608, USA",41.854046,-87.6956535
874,Primos Chicago Pizza,1,4.2,312,"816 W Van Buren St, Chicago, IL 60607, USA",41.876872,-87.648208
891,Wing Yip Chop Suey Restaurant,1,4.2,161,"537 W 26th St, Chicago, IL 60616, USA",41.8451976,-87.6414443
907,Tiparos Thai Cuisine & Sushi Bar,1,4.2,293,"1540 N Clark St, Chicago, IL 60610, USA",41.91065,-87.631892
950,Roma's Village Bar & Grill,1,4.2,245,"9247 S Commercial Ave, Chicago, IL 60617, USA",41.7267921,-87.5508444
959,Always Thai,1,4.2,66,"1825 W Irving Park Rd, Chicago, IL 60613, USA",41.9539993,-87.6753644
961,De Arcos Pizza,1,4.2,478,"2832 E 87th St #3257, Chicago, IL 60617, USA",41.7374983,-87.5548611
964,La Cebollita,1,4.2,307,"4343 W 47th St, Chicago, IL 60632, USA",41.8076528,-87.7326639
1007,New China Tea,1,4.2,431,"4024 W 55th St #4226, Chicago, IL 60632, USA",41.793316,-87.724218
1024,Ho Ho Restaurant,1,4.2,281,"7908 S Halsted St # D, Chicago, IL 60620, USA",41.7501843,-87.6444837
1027,Positano's Pizza,1,4.2,284,"4312 W 55th St, Chicago, IL 60632, USA",41.7932442,-87.7311376
1068,El Taco Veloz,1,4.2,489,"1745 W Chicago Ave, Chicago, IL 60622, USA",41.8958772,-87.671452
1069,Georgia's food depot,1,4.2,158,"7352 S Halsted St, Chicago, IL 60621, USA",41.760018,-87.6444715
1103,Allende Restaurant #1,1,4.2,491,"2408 N Lincoln Ave, Chicago, IL 60614, USA",41.9257148,-87.6493752
1124,Ken Kee Restaurant Hong Kong,1,4.2,672,"2129 S China Pl, Chicago, IL 60616, USA",41.8543969,-87.6332725
1157,Norwood Restaurant,1,4.2,205,"6101 N Northwest Hwy, Chicago, IL 60631, USA",41.992473,-87.7990017
1166,La Roqueta,1,4.2,365,"4023 W 31st St, Chicago, IL 60623, USA",41.8367765,-87.7253049
1181,Kimura Sushi&Ramen(BYOB),1,4.2,227,"1422 W Taylor St, Chicago, IL 60607, USA",41.8694832,-87.6626256
1211,Cholies Pizza Hyde Park,1,4.2,78,"1601 E 53rd St, Chicago, IL 60615, USA",41.7993668,-87.5863807
1219,Shibam Yemeni Kitchen,1,4.2,241,"4748 N Kenneth Ave, Chicago, IL 60630, USA",41.9678,-87.7401783
1236,Big Al's,1,4.2,199,"5335 S Kedzie Ave, Chicago, IL 60632, USA",41.7961453,-87.7034745
1266,Food Xpress Restaurant,1,4.2,135,"3851 S Michigan Ave, Chicago, IL 60653, USA",41.824083,-87.6227367
10,Esquire by Cooper's Hawk,2,4.2,148,"58 E Oak St, Chicago, IL 60611, USA",41.901049,-87.626112
46,Punch Bowl Social Chicago,2,4.2,2158,"310 N Green St, Chicago, IL 60607, USA",41.8872167,-87.6488309
96,Cafe Brauer,2,4.2,322,"2021 N Stockton Dr, Chicago, IL 60614, USA",41.9191173,-87.6338742
141,Starbucks,2,4.2,501,"515 N State St, Chicago, IL 60611, USA",41.891517,-87.626867
190,Mrs. Fields Northwest Train Station,2,4.2,47,"500 West Madison Street 1st Floor - Next To Starbucks , Cross From, Dunkin, Chicago, IL 60661, USA",41.8823062,-87.6403882
342,Andies Restaurant,2,4.2,465,"5253 N Clark St, Chicago, IL 60640, USA",41.977739,-87.668246
456,Paprika,2,4.2,94,"2547 W Lawrence Ave, Chicago, IL 60625, USA",41.9682959,-87.6932615
458,Kings Dining & Entertainment,2,4.2,666,"1500 N Clybourn Ave, Chicago, IL 60610, USA",41.9083828,-87.6463292
465,Pizano's Pizza & Pasta,2,4.2,1397,"2106 S Indiana Ave, Chicago, IL 60616, USA",41.8541667,-87.6225
467,Barraco's Pizza Chicago,2,4.2,684,"3047 W 111th St, Chicago, IL 60655, USA",41.6915045,-87.6978977
479,Pete's Pizza #2,2,4.2,376,"5847 W Montrose Ave, Chicago, IL 60634, USA",41.96015,-87.773824
498,The Pasta Bowl - Lincoln Square,2,4.2,284,"4343 N Lincoln Ave, Chicago, IL 60618, USA",41.9607518,-87.6831335
516,Tequila CJ Cantina Grill,2,4.2,1546,"5750 S Archer Ave, Chicago, IL 60638, USA",41.7968113,-87.7565287
562,Jamaican Tropical Cuisine,2,4.2,159,"8010 S Ashland Ave, Chicago, IL 60620, USA",41.7481301,-87.6635771
590,El Pescador Restaurant,2,4.2,369,"4056 S Western Ave, Chicago, IL 60609, USA",41.8192759,-87.684947
596,Cafe Sushi,2,4.2,159,"1342 N Wells St, Chicago, IL 60610, USA",41.9068282,-87.6347853
607,Nori Chicago | Neighborhood BYOB Sushi Bar and Restaurant | Bucktown,2,4.2,243,"1393 N Milwaukee Ave, Chicago, IL 60622, USA",41.9072688,-87.6722875
624,La Cecina Restaurant Familiar #1,2,4.2,704,"1934 W 47th St, Chicago, IL 60609, USA",41.80872,-87.67362
639,The Silver Palm,2,4.2,114,"768 N Milwaukee Ave, Chicago, IL 60622, USA",41.895577,-87.6547697
682,Retro Cafe and Restaurant,2,4.2,218,"3246 N Central Ave, Chicago, IL 60634, USA",41.9399846,-87.7667149
764,Shan Shaan Taste (Xi'an Cuisine),2,4.2,31,"2002 S Wentworth Ave basement 10, Chicago, IL 60616, USA",41.8548694,-87.6319831
766,Tahoora Sweets & Bakery,2,4.2,2719,"2345 W Devon Ave, Chicago, IL 60659, USA",41.9974987,-87.6892781
809,Su Taqueria Thaly's,2,4.2,335,"3156 N Austin Ave, Chicago, IL 60634, USA",41.9381794,-87.7764298
864,Alegrias Seafood Chicago,2,4.2,1532,"1024 N Ashland Ave, Chicago, IL 60622, USA",41.9004773,-87.6677183
877,Qsazon Mexican Restaurant,2,4.2,430,"8451 S Pulaski Rd, Chicago, IL 60652, USA",41.73884,-87.7212752
898,Thai Pastry,2,4.2,138,"4925 N Broadway Unit E, Chicago, IL 60640, USA",41.9723285,-87.6591153
929,Dolo Restaurant and Bar,2,4.2,822,"2222 S Archer Ave, Chicago, IL 60616, USA",41.8525451,-87.6360999
935,Frank's Pizzeria & Restaurant,2,4.2,249,"6506 W Belmont Ave, Chicago, IL 60634, USA",41.9384403,-87.788878
966,Villa Rosa Pizza,2,4.2,490,"5786 S Archer Ave, Chicago, IL 60638, USA",41.7965936,-87.7579988
1054,Potash Markets - State St,2,4.2,516,"875 N State St, Chicago, IL 60611, USA",41.8987123,-87.6280792
1149,Lena's Pizzeria,2,4.2,185,"5851 W 63rd St, Chicago, IL 60638, USA",41.7777778,-87.7686111
1180,Tio Luis Tacos,2,4.2,1198,"3856 S Archer Ave, Chicago, IL 60632, USA",41.8236626,-87.6890855
1200,Ambassador Chicago,2,4.2,1406,"1301 N State Pkwy, Chicago, IL 60610, USA",41.9060542,-87.6284696
1313,Cumin Restaurant,2,4.2,224,"1414 N Milwaukee Ave, Chicago, IL 60622, USA",41.9075401,-87.6734211
66,Seafood Junction,NULL,4.2,149,"4515 N Sheridan Rd, Chicago, IL 60640, USA",41.964185,-87.654269
148,The Crab House,NULL,4.2,105,"1049 W 103rd St, Chicago, IL 60643, USA",41.706515,-87.649557
152,The Bush Temple - River North,NULL,4.2,37,"108 W Chicago Ave, Chicago, IL 60610, USA",41.8968662,-87.6316468
181,Swap-O-Rama Flea Markets,NULL,4.2,4079,"4100 S Ashland Ave, Chicago, IL 60609, USA",41.818783,-87.667523
182,The Eternity Juice Bar,NULL,4.2,22,"203 E 75th St, Chicago, IL 60619, USA",41.7582025,-87.6196136
299,Bluebird Lanes,NULL,4.2,497,"3900 W Columbus Ave, Chicago, IL 60652, USA",41.737208,-87.719752
341,87th Street Jerk,NULL,4.2,95,"1710 W 87th St, Chicago, IL 60620, USA",41.7359727,-87.6659856
379,Pho Loan,NULL,4.2,161,"1114 W Argyle St, Chicago, IL 60640, USA",41.9734108,-87.6583222
478,The Good Life Soul Food Cafe,NULL,4.2,569,"11142 S Halsted St #3911, Chicago, IL 60628, USA",41.691103,-87.642556
508,Chicago Food On The Run,NULL,4.2,223,"8040 S Ashland Ave, Chicago, IL 60620, USA",41.7473712,-87.6635644
511,Cafe Galapagos,NULL,4.2,176,"3800 W Lawrence Ave, Chicago, IL 60625, USA",41.9684219,-87.7232572
616,Memo's Tacos,NULL,4.2,240,"6322 W Grand Ave #2616, Chicago, IL 60639, USA",41.9222873,-87.7838326
653,Poke Bowl Co,NULL,4.2,36,"1550 N Kingsbury St, Chicago, IL 60642, USA",41.9087408,-87.6527413
688,Beatnik On The River,NULL,4.2,1256,"180 N Upper Wacker Dr, Chicago, IL 60606, USA",41.8851748,-87.6371784
701,Johnna's Cafe,NULL,4.2,98,"520 S Western Ave, Chicago, IL 60612, USA",41.8743156,-87.6866091
843,Ann & Robert H. Lurie Children's Hospital of Chicago,NULL,4.2,1014,"225 E Chicago Ave, Chicago, IL 60611, USA",41.8962223,-87.6218344
947,Jc's Steak & Hoagie 69,NULL,4.2,208,"7158 S Western Ave, Chicago, IL 60629, USA",41.762994,-87.6835467
1085,Smokehouse At Ford City,NULL,4.2,31,"7601 S Cicero Ave # 1328, Chicago, IL 60652, USA",41.7554679,-87.7373522
1348,SGD DUBU SO GONG DONG TOFU & KOREAN BBQ,NULL,4.2,99,"H Mart Food Court, 711 W Jackson Blvd, Chicago, IL 60661, USA",41.8778236,-87.6446658
91,Vivi Bubble Tea,1,4.3,601,"333 S State St, Chicago, IL 60604, USA",41.8773044,-87.6274283
177,Ex Libris Cafe,1,4.3,46,"Regenstein Library, 1100 E 57th St, Chicago, IL 60637, USA",41.7922124,-87.5999337
194,La Central Bakery,1,4.3,163,"3306 W 55th St, Chicago, IL 60632, USA",41.7936483,-87.7064065
195,Top View Restaurant,1,4.3,811,"4715 W 63rd St, Chicago, IL 60629, USA",41.7782059,-87.7404479
274,Wiley's Chicken & Ribs,1,4.3,1066,"3848 W Madison St, Chicago, IL 60624, USA",41.8809152,-87.7226999
289,JJ Fish and Chicken,1,4.3,283,"5401 S Wentworth Ave #4W, Chicago, IL 60609, USA",41.7957911,-87.6302408
322,Los Molcajetes,1,4.3,281,"3532 W Montrose Ave, Chicago, IL 60618, USA",41.9612428,-87.7170507
326,Hong Kong Restaurant,1,4.3,129,"3904 N Cicero Ave, Chicago, IL 60641, USA",41.951867,-87.7474504
333,Conte's Pizza,1,4.3,281,"8512 S Pulaski Rd, Chicago, IL 60652, USA",41.7380462,-87.721763
345,Festa Pizzeria,1,4.3,229,"3525 W Fullerton Ave, Chicago, IL 60647, USA",41.9244684,-87.7148325
430,Stella's Mediterranean Grill,1,4.3,60,"2200 W Irving Park Rd, Chicago, IL 60618, USA",41.9543151,-87.6838276
455,Taqueria Mi Lindo Mexico,1,4.3,120,"538 W Pershing Rd, Chicago, IL 60609, USA",41.8236931,-87.6402311
553,Royal Thai Restaurant,1,4.3,168,"2209 W Montrose Ave, Chicago, IL 60618, USA",41.9612943,-87.6842252
582,Cal-Harbor Restaurant & Lounge,1,4.3,438,"546 E 115th St, Chicago, IL 60628, USA",41.6855818,-87.609666
621,Pete's Pizza,1,4.3,978,"3737 N Western Ave, Chicago, IL 60618, USA",41.9498207,-87.6880406
629,Snack Shop,1,4.3,87,"452 W Pershing Rd, Chicago, IL 60609, USA",41.8239053,-87.6382579
631,Coyotes Restaurant,1,4.3,905,"1451 W 18th St, Chicago, IL 60608, USA",41.8577117,-87.6634193
633,Luke's Italian Beef,1,4.3,1236,"215 W Jackson Blvd, Chicago, IL 60606, USA",41.8779409,-87.6342249
634,Brasa Roja Montrose,1,4.3,1485,"3120 W Montrose Ave, Chicago, IL 60618, USA",41.9613343,-87.7067643
651,Tank Noodle,1,4.3,1796,"4953-55 N Broadway, Chicago, IL 60640, USA",41.973113,-87.65949
664,Paterno's Pizza,1,4.3,492,"5303 N Milwaukee Ave, Chicago, IL 60630, USA",41.9775,-87.7686111
702,Casa Cafe,1,4.3,383,"2025 S Western Ave, Chicago, IL 60608, USA",41.853971,-87.685321
717,Southside African Restaurant,1,4.3,267,"8311 S Baltimore Ave, Chicago, IL 60617, USA",41.7444852,-87.5551148
724,Pizza Art Cafe,1,4.3,271,"4658 N Rockwell St, Chicago, IL 60625, USA",41.9665037,-87.6939156
739,Patio Restaurant,1,4.3,206,"1503 W Taylor St, Chicago, IL 60607, USA",41.86916,-87.6643493
747,Danke,1,4.3,26,"125 S Clark St, Chicago, IL 60603, USA",41.8795715,-87.6302668
755,Taza Bakery,1,4.3,437,"3100 W Devon Ave, Chicago, IL 60659, USA",41.9977611,-87.7071559
798,Shan Restaurant,1,4.3,755,"5060 N Sheridan Rd, Chicago, IL 60640, USA",41.9750137,-87.6554811
803,Sheeba Mandi House Of Devon,1,4.3,329,"2510 W Devon Ave, Chicago, IL 60659, USA",41.997829,-87.692895
816,El Faro Restaurant,1,4.3,1514,"3936 W 31st St, Chicago, IL 60623, USA",41.837052,-87.723397
827,Honeymoon Cafe,1,4.3,90,"1138 W Argyle St, Chicago, IL 60640, USA",41.9733452,-87.6593964
830,Taipei Cafe,1,4.3,535,"2609 S Halsted St, Chicago, IL 60608, USA",41.8449742,-87.6461822
839,Vini's Pizza,1,4.3,172,"4009 W Lawrence Ave, Chicago, IL 60630, USA",41.9680804,-87.728549
840,Happiness,1,4.3,439,"3313 S Halsted St, Chicago, IL 60608, USA",41.8339585,-87.6458385
892,Diversey River Bowl,1,4.3,744,"2211 W Diversey Pkwy, Chicago, IL 60647, USA",41.931658,-87.6834223
908,Taqueria La Paz,1,4.3,507,"5052 W Armitage Ave, Chicago, IL 60639, USA",41.917033,-87.753007
921,Dennis Carry-Outs,1,4.3,82,"3257 W 26th St, Chicago, IL 60623, USA",41.8443431,-87.7072163
938,Chiu Quon Bakery & Dim Sum,1,4.3,504,"2253 S Wentworth Ave, Chicago, IL 60616, USA",41.8513689,-87.6316845
979,Chi Cafe,1,4.3,1550,"2160 S Archer Ave, Chicago, IL 60616, USA",41.8534879,-87.6345473
983,Vince's Restaurant & Pizzeria,1,4.3,429,"6217 W 63rd St, Chicago, IL 60638, USA",41.7776163,-87.7770425
1003,Guerrero's Tacos & Pizza,1,4.3,419,"2534 W Division St, Chicago, IL 60622, USA",41.903167,-87.690888
1018,Spoon Thai,1,4.3,185,"4608 N Western Ave, Chicago, IL 60625, USA",41.9651936,-87.6891599
1023,De Pasada,1,4.3,509,"1517 W Taylor St, Chicago, IL 60607, USA",41.8691051,-87.6648385
1046,Cafe L'Appetito,1,4.3,29,"251 E Huron St #2908, Chicago, IL 60611, USA",41.8946256,-87.6209858
1048,Pizza Lobo,1,4.3,282,"3000 W Fullerton Ave, Chicago, IL 60647, USA",41.9250499,-87.7025779
1111,Paula's Thai Kitchen,1,4.3,207,"2441 N Halsted St, Chicago, IL 60614, USA",41.9267149,-87.6485892
1179,Gelatinas Cris,1,4.3,198,"4725 S Cicero Ave, Chicago, IL 60632, USA",41.8068091,-87.7426905
1182,Pompei Restaurant,1,4.3,2116,"1531 W Taylor St, Chicago, IL 60607, USA",41.8691611,-87.6655795
1207,Snail Thai Cuisine,1,4.3,369,"1649 E 55th St, Chicago, IL 60615, USA",41.7950677,-87.5847792
1208,Rolando Tacos,1,4.3,201,"2322 N Cicero Ave, Chicago, IL 60639, USA",41.923144,-87.7465435
1230,Chai's Asian Bistro,1,4.3,62,"4748 W Peterson Ave, Chicago, IL 60646, USA",41.9901236,-87.7478798
1244,Morgan Street Cafe,1,4.3,174,"111 S Morgan St, Chicago, IL 60607, USA",41.8793577,-87.6515619
1245,Big Boss Spicy Fried Chicken,1,4.3,419,"2520 S Halsted St, Chicago, IL 60608, USA",41.8464821,-87.6467369
1255,SaiMai Thai Restaurant,1,4.3,210,"338 W Armitage Ave, Chicago, IL 60614, USA",41.9184917,-87.6379423
1311,Meson Del Taco,1,4.3,839,"3144 N Narragansett Ave, Chicago, IL 60634, USA",41.9378006,-87.786061
1335,Taqueria Los Altos De Jalisco,1,4.3,273,"4344 W 63rd St, Chicago, IL 60629, USA",41.7787479,-87.731847
1344,El Buen Valle,1,4.3,310,"4114 W North Ave, Chicago, IL 60639, USA",41.9100005,-87.7294256
1345,La Amistad Restaurant,1,4.3,229,"1914 W Montrose Ave #647, Chicago, IL 60613, USA",41.9616466,-87.6766375
1346,John's Pizzeria Ristorante & Lounge,1,4.3,513,"2104 N Western Ave, Chicago, IL 60647, USA",41.920105,-87.6877795
39,Snakes & Lattes Chicago,2,4.3,157,"1965 N Milwaukee Ave, Chicago, IL 60647, USA",41.9173395,-87.6878702
42,Nancy's Pizzeria,2,4.3,240,"1000 W Washington Blvd, Chicago, IL 60607, USA",41.8832889,-87.6527937
54,Parlor Pizza Bar West Loop,2,4.3,2903,"108 N Green St, Chicago, IL 60607, USA",41.8834277,-87.6488209
56,Mariscos El Abuelo y Yo,2,4.3,652,"3752 S Kedzie Ave, Chicago, IL 60632, USA",41.8245214,-87.7048062
57,Elephant & Castle,2,4.3,1762,"111 W Adams St, Chicago, IL 60603, USA",41.8792504,-87.631174
82,Stan's Donuts & Coffee,2,4.3,540,"750 N Rush St, Chicago, IL 60611, USA",41.8965221,-87.6256761
137,Insomnia Cookies,2,4.3,396,"1537 N Milwaukee Ave, Chicago, IL 60622, USA",41.9094814,-87.6757804
138,Two Fish Crab Shack,2,4.3,1830,"641 E 47th St, Chicago, IL 60653, USA",41.8093318,-87.6097455
171,Pierre's Bakery Chicago,2,4.3,150,"1956 W Chicago Ave, Chicago, IL 60622, USA",41.8960728,-87.6768069
206,Sabor A Cafe Colombian Steakhouse & Restaurant Bar,2,4.3,773,"2435 W Peterson Ave, Chicago, IL 60659, USA",41.9902939,-87.69104
270,Hanabusa Cafe,2,4.3,336,"Heyworth Building, 29 E Madison St, Chicago, IL 60602, USA",41.8819605,-87.6267646
324,Home Run Inn Pizza,2,4.3,1463,"6221 S Archer Ave, Chicago, IL 60638, USA",41.7934358,-87.7753685
357,"Max's Restaurant, Cuisine of the Philippines, Chicago",2,4.3,273,"5033 N Elston Ave Unit 102, Chicago, IL 60630, USA",41.9725914,-87.746109
361,Olive Garden Italian Restaurant,2,4.3,3332,"3555 W Addison St, Chicago, IL 60618, USA",41.9462155,-87.7172462
387,Pizzeria Due,2,4.3,1958,"619 N Wabash Ave, Chicago, IL 60611, USA",41.8931085,-87.62643
396,West Town Bakery - Financial District,2,4.3,4,"190 South LaSalle Street Lobby, Chicago, IL 60603, USA",41.8797866,-87.6327896
408,Evergreen Restaurant,2,4.3,364,"2411 S Wentworth Ave, Chicago, IL 60616, USA",41.8487231,-87.6315956
413,Weber Grill Restaurant,2,4.3,3040,"539 N State St, Chicago, IL 60654, USA",41.8920631,-87.6278601
428,Reclaimed Bar and Restaurant,2,4.3,256,"3655 N Western Ave, Chicago, IL 60618, USA",41.9483332,-87.6879723
463,All Star Seafood and Sports,2,4.3,95,"730 S Clark St Suite D, Chicago, IL 60605, USA",41.8725288,-87.6308608
464,Gino's North,2,4.3,246,"1111 W Granville Ave, Chicago, IL 60660, USA",41.9944038,-87.6589355
471,Brandys Gyros,2,4.3,818,"6262 N Harlem Ave, Chicago, IL 60631, USA",41.9951502,-87.8070636
502,Joe's Pizza,2,4.3,77,"5747 W Higgins Ave, Chicago, IL 60630, USA",41.9714276,-87.7725047
520,Roots Handmade Pizza - West Town,2,4.3,1262,"1924 W Chicago Ave, Chicago, IL 60622, USA",41.8962448,-87.6756447
521,Bourgeois Pig Cafe,2,4.3,675,"738 W Fullerton Ave, Chicago, IL 60614, USA",41.9256734,-87.6479217
584,Ruk Sushi & Thai (Milwaukee Ave),2,4.3,285,"4431 N Milwaukee Ave, Chicago, IL 60630, USA",41.9613903,-87.7549237
604,Pappanino's Pizza Chicago,2,4.3,156,"925 N Ashland Ave, Chicago, IL 60622, USA",41.8987361,-87.667157
637,The Waterfront Cafe,2,4.3,479,"6219 N Sheridan Rd, Chicago, IL 60660, USA",41.9952364,-87.6551319
648,Hiromi's Oriental Restaurant,2,4.3,58,"3609 W Lawrence Ave, Chicago, IL 60625, USA",41.9682487,-87.7188017
649,Juliana Restaurant,2,4.3,215,"3001 W Peterson Ave, Chicago, IL 60659, USA",41.990195,-87.7045209
671,Sushi Para II,2,4.3,884,"2258 N Clark St, Chicago, IL 60614, USA",41.9234706,-87.6393662
689,Great Sea Restaurant,2,4.3,932,"3253 W Lawrence Ave, Chicago, IL 60625, USA",41.9683409,-87.7105546
690,Meli Cafe,2,4.3,1774,"500 S Dearborn St, Chicago, IL 60605, USA",41.8754049,-87.6294064
699,Punky's Pizza & Pasta,2,4.3,477,"2600 S Wallace St, Chicago, IL 60616, USA",41.8452688,-87.6418384
706,Triano's Pizza,2,4.3,383,"6758 W Archer Ave, Chicago, IL 60638, USA",41.7923068,-87.7913661
727,Maria's Mexican Restaurant,2,4.3,811,"1905 N Harlem Ave, Chicago, IL 60707, USA",41.9146417,-87.8056097
744,Friends Sushi,2,4.3,788,"710 N Rush St, Chicago, IL 60611, USA",41.895346,-87.62577
749,Lawrence's Fish & Shrimp,2,4.3,5229,"2120 S Canal St, Chicago, IL 60616, USA",41.8538719,-87.6388575
772,Fat Chris's Pizza and Such,2,4.3,385,"1706 W Foster Ave, Chicago, IL 60640, USA",41.9762835,-87.6725101
783,Chema's Restaurant,2,4.3,451,"3434 W North Ave, Chicago, IL 60647, USA",41.9102893,-87.7131394
786,Bree Thai Restaurant,2,4.3,467,"5306 S Central Ave, Chicago, IL 60638, USA",41.7960417,-87.7626663
811,Nordstrom Ebar Artisan Coffee,2,4.3,63,"55 E Grand Ave, Chicago, IL 60611, USA",41.8913138,-87.6258879
819,Tortorice's Pizza,2,4.3,146,"2101 W Irving Park Rd, Chicago, IL 60618, USA",41.9538426,-87.681405
862,"Eggs, Inc. Cafe Restaurant",2,4.3,426,"680 N Lake Shore Dr, Chicago, IL 60611, USA",41.8944282,-87.6165466
880,Pancho Pistolas Authentic Mexican Restaurant,2,4.3,1423,"700 W 31st St, Chicago, IL 60616, USA",41.8383,-87.644022
889,Protein Bar & Kitchen,2,4.3,29,"222 W Merchandise Mart Plaza, Chicago, IL 60654, USA",41.888263,-87.635066
901,Doreen's Pizzeria,2,4.3,303,"13201 S Baltimore Ave, Chicago, IL 60633, USA",41.6553681,-87.5467513
904,The Nile of Hyde Park,2,4.3,513,"1162 E 55th St, Chicago, IL 60615, USA",41.7951867,-87.5971299
943,Sono Wood Fired Chicago,2,4.3,147,"800 S Clark St, Chicago, IL 60605, USA",41.8717573,-87.630913
944,Oda Mediterranean,2,4.3,333,"5657 N Clark St, Chicago, IL 60660, USA",41.985039,-87.6688047
967,DiCola's Seafood,2,4.3,1549,"10754 S Western Ave, Chicago, IL 60643, USA",41.6974403,-87.6815858
968,Papa Joe's Pizza,2,4.3,172,"5750 N Milwaukee Ave, Chicago, IL 60646, USA",41.9859357,-87.7774431
972,Tempo Cafe,2,4.3,1588,"6 E Chestnut St, Chicago, IL 60611, USA",41.8985241,-87.6279931
990,Grand Lux Cafe,2,4.3,6234,"600 N Michigan Ave, Chicago, IL 60611, USA",41.8929172,-87.6248263
997,Pizzeria Ora Chicago,2,4.3,500,"545 N La Salle St, Chicago, IL 60654, USA",41.8921947,-87.6323929
1005,Falco's Pizza,2,4.3,1172,"2806 W 40th Pl, Chicago, IL 60632, USA",41.8202575,-87.6948115
1020,Magnolia Bakery - Chicago,2,4.3,1770,"108 N State St, Chicago, IL 60602, USA",41.8841057,-87.6281204
1031,Green Leaf Thai Cuisine,2,4.3,177,"4658 N Western Ave, Chicago, IL 60625, USA",41.9665431,-87.6891217
1066,Cafe Luigi Pizza,2,4.3,151,"2548 N Clark St, Chicago, IL 60614, USA",41.9289826,-87.6427452
1090,Antique Taco Bridgeport,2,4.3,891,"1000 W 35th St, Chicago, IL 60609, USA",41.8309159,-87.651283
1095,BIG Bar,2,4.3,304,"151 E Wacker Dr, Chicago, IL 60601, USA",41.8876785,-87.6217096
1099,El Campestre,2,4.3,236,"4226 S Archer Ave, Chicago, IL 60632, USA",41.8166667,-87.7002778
1109,Huck Finn Restaurant,2,4.3,2917,"3414 S Archer Ave, Chicago, IL 60608, USA",41.8318017,-87.6760353
1144,RAMEN-SAN Deluxe,2,4.3,812,"165 E Huron St, Chicago, IL 60611, USA",41.8948318,-87.6229935
1163,Cho Sun Ok Restaurant,2,4.3,1536,"4200 N Lincoln Ave, Chicago, IL 60618, USA",41.9579004,-87.6815705
1164,Great Chicago Food & Beverage Co,2,4.3,300,"3149 W Devon Ave, Chicago, IL 60659, USA",41.9971932,-87.7088942
1201,Moon's Sandwich Shop,2,4.3,756,"16 S Western Ave, Chicago, IL 60612, USA",41.8806698,-87.6866136
1256,Umami Sushi,2,4.3,981,"4626 N Cumberland Ave, Chicago, IL 60656, USA",41.9638023,-87.8370743
1257,Broken English Taco Pub,2,4.3,1106,"2576 N Lincoln Ave, Chicago, IL 60614, USA",41.9286026,-87.6533849
1277,El Garcia Restaurant,2,4.3,393,"7515 N Western Ave, Chicago, IL 60645, USA",42.017981,-87.689666
1347,Kanela Breakfast Club,2,4.3,436,"1552 N Wells St, Chicago, IL 60610, USA",41.910668,-87.634878
761,The Palm - Chicago,4,4.3,495,"323 E Wacker Dr, Chicago, IL 60601, USA",41.8874577,-87.6195718
27,Gordo's Tiny Taco Bar,NULL,4.3,148,"333 E Benton Pl Suite 100, Chicago, IL 60601, USA",41.8854454,-87.6191112
28,Ed Debevic's,NULL,4.3,330,"159 E Ohio St, Chicago, IL 60611, USA",41.8923119,-87.6232079
59,OSI Foods Co LLC,NULL,4.3,47,"4545 S Racine Ave, Chicago, IL 60609, USA",41.811988,-87.6544603
547,Snap food fish .chicken .grill.rice,NULL,4.3,15,"345 N Central Ave unit d, Chicago, IL 60644, USA",41.8869608,-87.7647249
559,Palmer House a Hilton Hotel,NULL,4.3,9998,"17 E Monroe St, Chicago, IL 60603, USA",41.8803066,-87.6267388
657,UChicago Medicine Center for Care and Discovery - Hyde Park,NULL,4.3,50,"5700 S Maryland Ave, Chicago, IL 60637, USA",41.79098,-87.6049447
679,Birrieria el Texcal,NULL,4.3,139,"3700 W Lawrence Ave, Chicago, IL 60625, USA",41.968515,-87.720868
805,Mugs Pizza & Ribs,NULL,4.3,192,"7228 Harlem Ave, Chicago, IL 60631, USA",42.0126037,-87.8069992
928,El Pollo Real,NULL,4.3,125,"6330 S Pulaski Rd, Chicago, IL 60629, USA",41.7777423,-87.7230137
1115,Friends Sushi on State,NULL,4.3,182,"804 N State St, Chicago, IL 60610, USA",41.897041,-87.628401
1202,Fiya,NULL,4.3,218,"5419 N Clark St, Chicago, IL 60640, USA",41.9804581,-87.6680728
1217,Tropicuba Cafe,NULL,4.3,83,"5606 W Irving Park Rd, Chicago, IL 60634, USA",41.9535587,-87.7674027
1241,Hyatt House Chicago - Medical / University District,NULL,4.3,40,"1835 W Harrison St, Chicago, IL 60612, USA",41.8737831,-87.6729442
1337,M & R Foods,NULL,4.3,13,"11334 S Michigan Ave, Chicago, IL 60628, USA",41.6879705,-87.6211687
47,Hon Kee BBQ & Seafood Restaurant,1,4.4,512,"5009 N Winthrop Ave, Chicago, IL 60640, USA",41.9736685,-87.6576224
52,Turkish Cafe Tea House,1,4.4,166,"2621 W Lawrence Ave, Chicago, IL 60625, USA",41.9684496,-87.6947301
95,Pie-Eyed Pizzeria,1,4.4,318,"1111 W Chicago Ave, Chicago, IL 60642, USA",41.8960431,-87.6556888
102,Yogurt Square,1,4.4,270,"4701 N Lincoln Ave, Chicago, IL 60625, USA",41.966814,-87.687099
134,Forever Yogurt,1,4.4,250,"3510 N Halsted St, Chicago, IL 60657, USA",41.9457123,-87.6495628
280,Los Mangos Neveria Y Fruteria,1,4.4,241,"3551 W 26th St, Chicago, IL 60623, USA",41.8441444,-87.7143902
302,Bingo Tea,1,4.4,326,"2150A S Archer Ave, Chicago, IL 60616, USA",41.8536553,-87.6341257
314,Kung Fu Tea,1,4.4,1070,"2126B S Archer Ave, Chicago, IL 60616, USA",41.8543044,-87.6329278
354,Harmony Restaurant,1,4.4,482,"6525 W Archer Ave, Chicago, IL 60638, USA",41.7920385,-87.7852561
391,Golden Thai,1,4.4,379,"1509 W Taylor St #1, Chicago, IL 60607, USA",41.8691694,-87.6644475
433,Tiba Restaurant,1,4.4,220,"2721 W Lawrence Ave, Chicago, IL 60625, USA",41.968263,-87.697153
447,Rice Thai Cafe & Sushi,1,4.4,141,"6744 N Sheridan Rd, Chicago, IL 60626, USA",42.0047931,-87.6612036
451,J.B. Alberto's Pizza,1,4.4,1304,"1326 W Morse Ave, Chicago, IL 60626, USA",42.008074,-87.664856
457,La Bomba Restaurant IL,1,4.4,2147,"3221 W Armitage Ave, Chicago, IL 60647, USA",41.9172171,-87.7078886
469,Al's #1 Italian Beef,1,4.4,1539,"548 N Wells St, Chicago, IL 60654, USA",41.892247,-87.634373
486,Sano's Pizzeria,1,4.4,80,"4469 W Lawrence Ave, Chicago, IL 60630, USA",41.9679144,-87.7405932
492,Su Taqueria El Rey Del Taco,1,4.4,482,"1676 W Ogden Ave, Chicago, IL 60612, USA",41.8793194,-87.668996
493,Pizza Boy Chicago,1,4.4,202,"6694 N Northwest Hwy, Chicago, IL 60631, USA",42.0026031,-87.816133
506,Restaurant Ecuador,1,4.4,477,"2923 W Diversey Ave, Chicago, IL 60647, USA",41.9319338,-87.7010573
599,Brazilian Bowl Brazilian Grill,1,4.4,447,"3200 W Lawrence Ave, Chicago, IL 60625, USA",41.9686181,-87.7086805
608,Gigio's Pizzeria,1,4.4,1018,"4643 N Broadway, Chicago, IL 60640, USA",41.9666776,-87.6579462
635,Seoul Taco,1,4.4,1150,"738 N Clark St, Chicago, IL 60654, USA",41.8960136,-87.6316048
687,Hong Huah,1,4.4,350,"5924 W Fullerton Ave, Chicago, IL 60639, USA",41.924132,-87.774314
725,Wing Chong Restaurant,1,4.4,111,"4077 N Elston Ave, Chicago, IL 60618, USA",41.9554304,-87.7213038
738,Phil's Pizza,1,4.4,1492,"1102 W 35th St, Chicago, IL 60609, USA",41.830902,-87.653612
765,West River Cafe,1,4.4,360,"4400 N Kedzie Ave, Chicago, IL 60625, USA",41.9613374,-87.7084089
789,Burgundy Restaurant,1,4.4,584,"5959 W Irving Park Rd, Chicago, IL 60634, USA",41.9528591,-87.7766465
790,Harry's Sandwich,1,4.4,70,"336 S Dearborn St, Chicago, IL 60604, USA",41.8770858,-87.6294421
791,Peet's Coffee,1,4.4,93,"222 S Riverside Plaza, Chicago, IL 60606, USA",41.878878,-87.638957
793,Big G's Pizza,1,4.4,315,"3716 N Clark St, Chicago, IL 60613, USA",41.9495327,-87.6585348
796,Mariscos Luis,1,4.4,688,"4225 W 47th St, Chicago, IL 60632, USA",41.8076298,-87.7295051
817,Han Bat Restaurant,1,4.4,255,"2723 W Lawrence Ave, Chicago, IL 60625, USA",41.9681974,-87.69736
847,P.S.BANGKOK,1,4.4,148,"3345 N Clark St, Chicago, IL 60657, USA",41.9429931,-87.6528695
857,CornerStone Cafe Lincoln Park,1,4.4,327,"2200 N Clybourn Ave, Chicago, IL 60614, USA",41.9217218,-87.6647374
863,El Gallo,1,4.4,556,"2547 W 111th St, Chicago, IL 60655, USA",41.6915605,-87.6855872
872,Scafuri Bakery,1,4.4,188,"1337 W Taylor St, Chicago, IL 60607, USA",41.8692345,-87.6606152
873,Siam Treasure,1,4.4,148,"7152 N Harlem Ave, Chicago, IL 60631, USA",42.0114772,-87.8071241
876,Konak Pizza & Grill,1,4.4,165,"5150 N Clark St, Chicago, IL 60640, USA",41.9759046,-87.668578
886,Obbie's Pizza,1,4.4,377,"6654 W Archer Ave, Chicago, IL 60638, USA",41.792422,-87.7888416
894,Cilantro Taco House,1,4.4,95,"3336 W Lawrence Ave, Chicago, IL 60625, USA",41.9685212,-87.7124231
937,Pat's Pizza,1,4.4,267,"628 S Clark St, Chicago, IL 60605, USA",41.873936,-87.630815
940,Sergio's Taqueria & Pizza,1,4.4,130,"3253 W Bryn Mawr Ave, Chicago, IL 60659, USA",41.9829441,-87.7109563
942,Old Jerusalem Restaurant,1,4.4,510,"1411 N Wells St, Chicago, IL 60610, USA",41.9080606,-87.6343032
948,Taqueria Nuevo Jalisco,1,4.4,181,"4011 W Armitage Ave, Chicago, IL 60639, USA",41.9170212,-87.727074
960,Eden's The Original,1,4.4,279,"6045 N Cicero Ave, Chicago, IL 60646, USA",41.991218,-87.7480597
986,Cafe Hoang | Vietnamese & Thai,1,4.4,199,"1020 W Argyle St, Chicago, IL 60640, USA",41.9735385,-87.6558137
998,Jolly Inn Restaurant & Banquet Hall,1,4.4,953,"6501 W Irving Park Rd, Chicago, IL 60634, USA",41.9525388,-87.7893208
1009,Cellars Market,1,4.4,76,"141 W Jackson Blvd, Chicago, IL 60604, USA",41.8777321,-87.6322643
1047,C'est Bien Thai,1,4.4,197,"3900 N Lincoln Ave, Chicago, IL 60613, USA",41.9525,-87.6777778
1070,Tropicuba,1,4.4,473,"3000 W Lyndale St, Chicago, IL 60647, USA",41.9225155,-87.7024155
1078,Di Nicos Pizza,1,4.4,206,"2341 N Narragansett Ave, Chicago, IL 60639, USA",41.9230652,-87.7851912
1096,Hoanh Long Vietnamese & Chinese Restaurant,1,4.4,356,"6148 N Lincoln Ave, Chicago, IL 60659, USA",41.9937167,-87.7132667
1102,Papa Santiago's Pizzeria,1,4.4,133,"4045 W 47th St, Chicago, IL 60632, USA",41.8076938,-87.7253479
1130,Cilantro Taco Grill - Lincoln Park,1,4.4,75,"2256 N Orchard St, Chicago, IL 60614, USA",41.9235005,-87.6465331
1132,Taco Lulu,1,4.4,249,"601 W Adams St, Chicago, IL 60661, USA",41.8790681,-87.6428157
1143,El Burrito Feliz Quesabirrias House,1,4.4,430,"3219 W Cermak Rd, Chicago, IL 60623, USA",41.8516679,-87.7061053
1168,Guerrerense Restaurant,1,4.4,242,"4758 W Fullerton Ave, Chicago, IL 60639, USA",41.9244238,-87.7460549
1189,Fullerton Restaurant,1,4.4,285,"2400 W Fullerton Ave, Chicago, IL 60647, USA",41.9250516,-87.6879523
1193,Skidoe's,1,4.4,93,"235 E 51st St, Chicago, IL 60615, USA",41.8018725,-87.6198096
1206,Bacolod Chicken House,1,4.4,203,"6320 N Lincoln Ave, Chicago, IL 60659, USA",41.9961834,-87.7171631
1254,Roy's Soul Food,1,4.4,550,"403 E 71st St, Chicago, IL 60619, USA",41.7655556,-87.615
1259,Tano's Pizzeria,1,4.4,152,"3038 W Irving Park Rd, Chicago, IL 60618, USA",41.9541617,-87.7046331
1263,Cafe Tola #3,1,4.4,215,"1625 W Addison St, Chicago, IL 60613, USA",41.9468514,-87.6696027
1267,Art of Pizza on State Street,1,4.4,453,"727 S State St, Chicago, IL 60605, USA",41.8723743,-87.6272475
1272,Tel-Aviv Kosher Pizza,1,4.4,378,"6349 N California Ave, Chicago, IL 60659, USA",41.9971847,-87.6994293
1315,B.I.Tea and Dim Sum,1,4.4,61,"131 N Clinton St, Chicago, IL 60661, USA",41.8842718,-87.6405659
1316,Eastern Style Pizza,1,4.4,288,"2911 W Touhy Ave, Chicago, IL 60645, USA",42.0118339,-87.7026044
1338,Mekato's Colombian Bakery,1,4.4,1009,"5423 N Lincoln Ave, Chicago, IL 60625, USA",41.9802483,-87.6924845
1339,Cecina Grill Pilsen,1,4.4,344,"1536 W 18th St, Chicago, IL 60608, USA",41.8580172,-87.6651006
3,Velvet Taco,2,4.4,207,"910 W Randolph St, Chicago, IL 60607, USA",41.8846431,-87.6503667
14,"Goddess and the Baker, Wabash",2,4.4,1922,"33 S Wabash Ave, Chicago, IL 60603, USA",41.8813079,-87.6256565
33,Sushi San Willis Tower,2,4.4,5,"233 S Wacker Dr, Chicago, IL 60606, USA",41.8788808,-87.6365158
45,Wishbone,2,4.4,1749,"161 N Jefferson St, Chicago, IL 60661, USA",41.8850445,-87.6424621
132,Moti X Masala Pizza,2,4.4,771,"70 W Huron St, Chicago, IL 60654, USA",41.8950167,-87.6310175
143,Bru Chicago,2,4.4,379,"1562 N Milwaukee Ave, Chicago, IL 60622, USA",41.9097733,-87.6768023
241,Pockets Restaurant,2,4.4,207,"1009 W Madison St, Chicago, IL 60607, USA",41.8815246,-87.652604
320,Te'amo Boba Bar,2,4.4,201,"2169 A S China Pl, Chicago, IL 60616, USA",41.8535235,-87.6350099
328,Stax Cafe,2,4.4,1050,"1401 W Taylor St, Chicago, IL 60607, USA",41.8691042,-87.6617945
334,Cafe Istanbul,2,4.4,675,"2014 W Division St, Chicago, IL 60622, USA",41.903386,-87.6778378
346,Jason's Deli,2,4.4,767,"1258 S Canal St, Chicago, IL 60607, USA",41.8655698,-87.640209
364,Villa Rosa Pizza Kitchen,2,4.4,78,"5345 W Devon Ave, Chicago, IL 60646, USA",41.9970839,-87.7627852
370,Silver Seafood Restaurant,2,4.4,115,"4829 N Broadway, Chicago, IL 60640, USA",41.9699897,-87.6594848
402,Trike Thai Noodles & Sushi,2,4.4,264,"2539 N Milwaukee Ave, Chicago, IL 60647, USA",41.927627,-87.70456
407,Nella Pizza e Pasta,2,4.4,693,"1125 E 55th St, Chicago, IL 60615, USA",41.794878,-87.5985437
425,Seadog Sushi Bar,2,4.4,317,"1500 W Division St #3344, Chicago, IL 60642, USA",41.9036327,-87.6651903
459,Connie's Pizza,2,4.4,3870,"2373 S Archer Ave, Chicago, IL 60616, USA",41.8490742,-87.6407643
512,Palermo's of 63rd Pizza and Restaurant,2,4.4,651,"3751 W 63rd St, Chicago, IL 60629, USA",41.778539,-87.7175198
551,Pizzeria Portofino,2,4.4,911,"317 N Clark St, Chicago, IL 60654, USA",41.8879836,-87.6307625
560,Chiya Chai Logan Square,2,4.4,862,"2770 N Milwaukee Ave, Chicago, IL 60647, USA",41.9314194,-87.7115722
575,Gino's East,2,4.4,6056,"162 E Superior St, Chicago, IL 60611, USA",41.8958861,-87.6230528
589,Exchequer Restaurant & Pub,2,4.4,2075,"226 S Wabash Ave, Chicago, IL 60604, USA",41.8787244,-87.6265671
591,Hard Rock Cafe,2,4.4,3437,"63 W Ontario St, Chicago, IL 60654, USA",41.8931028,-87.630405
630,PR Italian Bistro,2,4.4,546,"3908 N Sheridan Rd, Chicago, IL 60613, USA",41.9530736,-87.6547518
642,Danny's Pizza Place,2,4.4,839,"6021 S Archer Ave, Chicago, IL 60638, USA",41.7947334,-87.7674983
646,Main Pizza Chalavi,2,4.4,336,"2839 W Touhy Ave, Chicago, IL 60645, USA",42.0118502,-87.7011589
655,Susupuato Restaurant,2,4.4,190,"6161 N Broadway, Chicago, IL 60660, USA",41.9940729,-87.6600281
675,Ann Sather,2,4.4,832,"1147 W Granville Ave, Chicago, IL 60660, USA",41.9944158,-87.6600771
676,Edgewater Mexican Cafe,2,4.4,327,"1055 W Bryn Mawr Ave, Chicago, IL 60660, USA",41.9835023,-87.6578278
681,Wise Guy's Pizza,2,4.4,130,"3822 W 111th St, Chicago, IL 60655, USA",41.6915028,-87.7163711
684,The Village,2,4.4,3564,"71 W Monroe St, Chicago, IL 60603, USA",41.8805382,-87.6302049
692,Dollop Diner,2,4.4,586,"5060 N Clark St, Chicago, IL 60640, USA",41.9742403,-87.6683525
704,Polygon Cafe,2,4.4,338,"5204 N Clark St, Chicago, IL 60640, USA",41.9764614,-87.6686561
705,Milano's Pizza,2,4.4,254,"10945 S Western Ave, Chicago, IL 60643, USA",41.6941319,-87.680785
750,Coco Pazzo Cafe,2,4.4,465,"212 E Ohio St, Chicago, IL 60611, USA",41.8926811,-87.6220932
778,90 Miles Cuban Cafe,2,4.4,2918,"2540 W Armitage Ave, Chicago, IL 60647, USA",41.917692,-87.691817
785,Angelo's Wine Bar,2,4.4,576,"3026 W Montrose Ave, Chicago, IL 60618, USA",41.9613729,-87.7043617
795,Dancen,2,4.4,322,"5114 N Lincoln Ave, Chicago, IL 60625, USA",41.9745296,-87.6923362
802,Athena Greek Restaurant,2,4.4,2337,"212 S Halsted St #1, Chicago, IL 60661, USA",41.878736,-87.6476337
810,Piccolo Mondo,2,4.4,525,"1642 E 56th St #1, Chicago, IL 60637, USA",41.7935283,-87.5851996
812,Jieyi Sushi,2,4.4,51,"1178 N Milwaukee Ave, Chicago, IL 60642, USA",41.9030628,-87.6662429
848,El Tecolote Restaurant,2,4.4,323,"3519 W 26th St, Chicago, IL 60623, USA",41.844226,-87.713212
853,Pudgy's Pizza & Sandwiches,2,4.4,241,"13460 S Baltimore Ave, Chicago, IL 60633, USA",41.650111,-87.5473284
867,Bangkok Thai Cuisine,2,4.4,119,"6144 N Lincoln Ave, Chicago, IL 60659, USA",41.993598,-87.7131657
888,Orso's,2,4.4,794,"1401 N Wells St, Chicago, IL 60610, USA",41.9077845,-87.6344363
906,Little Branch Cafe,2,4.4,397,"1251 S Prairie Ave, Chicago, IL 60605, USA",41.8659341,-87.6214257
919,Labriola Chicago,2,4.4,2404,"535 N Michigan Ave, Chicago, IL 60611, USA",41.8919903,-87.6235426
932,Mac's Wood Grilled,2,4.4,292,"1801 W Division St, Chicago, IL 60622, USA",41.903021,-87.6725149
941,Yolk - Streeterville,2,4.4,2851,"corner of Grand & McClurg, 355 E Ohio St, Chicago, IL 60611, USA",41.8920251,-87.6180374
969,D4 Irish Pub & Cafe,2,4.4,1584,"345 E Ohio St, Chicago, IL 60611, USA",41.8919592,-87.618871
973,Rio taco's,2,4.4,89,"3246 W Foster Ave, Chicago, IL 60625, USA",41.9758357,-87.7105576
982,Iron Age Korean Steakhouse,2,4.4,705,"1265 N Milwaukee Ave, Chicago, IL 60622, USA",41.9048797,-87.668651
1014,Nookies on Wells,2,4.4,837,"1746 N Wells St, Chicago, IL 60614, USA",41.9142415,-87.6349712
1019,Eduardo's Enoteca,2,4.4,311,"1212 N Dearborn St, Chicago, IL 60610, USA",41.9043891,-87.6301549
1034,Dave's Hot Chicken,2,4.4,279,"3643 N Western Ave, Chicago, IL 60618, USA",41.9480057,-87.6880362
1060,Athenian Room,2,4.4,828,"807 W Webster Ave, Chicago, IL 60614, USA",41.9217096,-87.6491054
1091,Ryo Sushi,2,4.4,670,"62 E Madison St, Chicago, IL 60602, USA",41.8823172,-87.6254739
1101,Robert's Pizza and Dough Company,2,4.4,908,"465 N McClurg Ct, Chicago, IL 60611, USA",41.8905699,-87.6164505
1110,Canton Regio,2,4.4,2679,"1510 W 18th St, Chicago, IL 60608, USA",41.8580113,-87.664259
1135,Andy's Thai Kitchen,2,4.4,480,"950 W Diversey Pkwy, Chicago, IL 60614, USA",41.932783,-87.6534256
1154,Nohea Cafe,2,4.4,162,"1312 W Madison St, Chicago, IL 60607, USA",41.881703,-87.660405
1161,West Town Bakery & Diner,2,4.4,806,"1916 W Chicago Ave, Chicago, IL 60622, USA",41.896158,-87.675407
1173,Armand's Pizzeria,2,4.4,131,"4159 N Western Ave, Chicago, IL 60618, USA",41.9575588,-87.688327
1192,Circle Sushi & Grill,2,4.4,184,"1623 N Halsted St, Chicago, IL 60614, USA",41.9116383,-87.6481216
1197,Huaraches Mexican Restaurant,2,4.4,47,"6107 W Addison St, Chicago, IL 60634, USA",41.9456329,-87.7793121
1204,Red Apple Buffet,2,4.4,1056,"6474 N Milwaukee Ave, Chicago, IL 60631, USA",41.99893,-87.7897484
1226,Dirty Tiff's Cafe,2,4.4,115,"225 E 47th St, Chicago, IL 60653, USA",41.8091095,-87.6200354
1261,Pucci's Restaurant & Pizzeria,2,4.4,357,"10063 S Ewing Ave, Chicago, IL 60617, USA",41.7121087,-87.5349749
1287,Cafe' 75,2,4.4,79,"7550 S Halsted St, Chicago, IL 60620, USA",41.7563311,-87.6444039
1288,Brown Bag Seafood Co.,2,4.4,582,"340 E Randolph St, Chicago, IL 60601, USA",41.884686,-87.618978
1309,Kamehachi Cafe,2,4.4,56,"311 S Wacker Dr, Chicago, IL 60606, USA",41.8776651,-87.6357178
1333,Dongpo Impression,2,4.4,136,"228 W Cermak Rd, Chicago, IL 60616, USA",41.853166,-87.632889
366,Mirai Sushi,3,4.4,178,"2020 W Division St, Chicago, IL 60622, USA",41.9033176,-87.678186
1275,Truluck's Ocean's Finest Seafood and Crab,3,4.4,547,"41 E Chestnut St, Chicago, IL 60611, USA",41.8981351,-87.6266198
6,Cookies & Carnitas,NULL,4.4,136,"5940 N Broadway, Chicago, IL 60660, USA",41.9902941,-87.6604611
30,LAKESIDE FOOD WINE SPIRITS 2,NULL,4.4,7,"2310 N Lincoln Ave, Chicago, IL 60614, USA",41.9238874,-87.6469576
79,Market Creations,NULL,4.4,118,"111 W Jackson Blvd, Chicago, IL 60604, USA",41.8777013,-87.631668
193,Nine One One BBQ Shack,NULL,4.4,317,"2734 W 111th St, Chicago, IL 60655, USA",41.6918326,-87.6899496
213,Harry's Cafe,NULL,4.4,14,"375 E Chicago Ave, Chicago, IL 60611, USA",41.8963628,-87.6174234
269,Reggie's,NULL,4.4,43,"411 S Wells St #1, Chicago, IL 60607, USA",41.8763756,-87.6331564
395,Junebug Cafe West Town,NULL,4.4,99,"851 N Ashland Ave, Chicago, IL 60622, USA",41.8975899,-87.6670516
431,Grota Banquets & Catering,NULL,4.4,77,"3112 N Central Ave, Chicago, IL 60634, USA",41.937228,-87.766761
442,El Sombrero,NULL,4.4,58,"5220 S Pulaski Rd, Chicago, IL 60632, USA",41.79834,-87.7248037
602,Gorilla Sushi Wicker Park,NULL,4.4,256,"1238 N Milwaukee Ave, Chicago, IL 60622, USA",41.9042347,-87.6680752
732,Nha Trang Restaurant,NULL,4.4,44,"1104 W Argyle St, Chicago, IL 60640, USA",41.9734912,-87.6581159
780,Sushi World,NULL,4.4,261,"6251 N McCormick Blvd, Chicago, IL 60659, USA",41.9952146,-87.7125079
797,Cafeteria Marianao,NULL,4.4,484,"1953 N La Crosse Ave, Chicago, IL 60639, USA",41.9166963,-87.7471618
824,Caza Alebrije Restaurant,NULL,4.4,118,"3434 S Western Ave, Chicago, IL 60608, USA",41.831037,-87.685394
878,Bronzeville Wingz,NULL,4.4,127,"4300 S Michigan Ave, Chicago, IL 60653, USA",41.8163804,-87.6232464
895,Simi's Restaurant,NULL,4.4,130,"6310 N Western Ave, Chicago, IL 60659, USA",41.9963203,-87.6900844
1129,The Westin Chicago River North,NULL,4.4,1802,"320 N Dearborn St, Chicago, IL 60654, USA",41.8880493,-87.6298778
1238,Jimenez Restaurant,NULL,4.4,303,"5716 W Diversey Ave, Chicago, IL 60639, USA",41.9313625,-87.7694747
1273,Meson Del Taco Express,NULL,4.4,170,"7616 W Belmont Ave, Chicago, IL 60634, USA",41.938173,-87.8172598
1325,Yinkres Nigerian Restaurant,NULL,4.4,29,"2407 W Lunt Ave, Chicago, IL 60645, USA",42.0084855,-87.6906754
31,Nicky's of Beverly,1,4.5,1219,"10500 S Western Ave, Chicago, IL 60643, USA",41.7025212,-87.681747
50,Flo,1,4.5,692,"1434 W Chicago Ave, Chicago, IL 60642, USA",41.896336,-87.66395
53,Blaze Pizza,1,4.5,570,"24 S Clinton St, Chicago, IL 60661, USA",41.881123,-87.6413991
119,Panaderia Marzeya,1,4.5,62,"8908 S Commercial Ave, Chicago, IL 60617, USA",41.7333412,-87.5514984
135,Gaslight Coffee Roasters,1,4.5,668,"2385 N Milwaukee Ave, Chicago, IL 60647, USA",41.9245667,-87.6997915
160,Back of the Yards Coffeehouse,1,4.5,558,"2059 W 47th St, Chicago, IL 60609, USA",41.8083134,-87.6769533
166,Geo's Pizza Inc,1,4.5,158,"2849 N Harlem Ave, Chicago, IL 60707, USA",41.9322651,-87.8062752
170,Chicago Billiard Cafe,1,4.5,175,"5935 W Irving Park Rd, Chicago, IL 60634, USA",41.9528296,-87.7757567
283,Werewolf Coffee,1,4.5,169,"1765 N Elston Ave, Chicago, IL 60642, USA",41.9147222,-87.664425
290,Hurricane Coffee Co.,1,4.5,92,"4054 N Western Ave, Chicago, IL 60618, USA",41.9557212,-87.6887945
296,FORBIS pizza,1,4.5,150,"2509 W 51st St, Chicago, IL 60632, USA",41.8009318,-87.6871216
301,"Goddess and the Baker, Madison",1,4.5,80,"181 W Madison St, Chicago, IL 60602, USA",41.8816217,-87.633368
331,Thai Pot Noodles Shop,1,4.5,41,"5691 N Milwaukee Ave, Chicago, IL 60646, USA",41.9852228,-87.7759297
344,Klein's Bakery & Cafe,1,4.5,374,"4155 N Broadway, Chicago, IL 60613, USA",41.958324,-87.652806
353,Young's Chinese Restaurant,1,4.5,120,"3949 N Ashland Ave, Chicago, IL 60613, USA",41.953879,-87.6686892
355,Ann Sather Restaurant & Catering,1,4.5,567,"3415 N Broadway, Chicago, IL 60657, USA",41.9438181,-87.6448901
374,Jersey Mike's Subs,1,4.5,90,"4058A W Peterson Ave, Chicago, IL 60646, USA",41.990337,-87.730865
378,Jimmy's Pizza Cafe,1,4.5,926,"2434 W Montrose Ave, Chicago, IL 60618, USA",41.9615397,-87.690125
405,Taco Pros (Taylor St),1,4.5,46,"2200 W Taylor St, Chicago, IL 60612, USA",41.8692452,-87.6813719
409,Cipriani's Pizza,1,4.5,310,"5840 W 63rd St, Chicago, IL 60638, USA",41.7782256,-87.768203
444,Little Vietnam Restaurant,1,4.5,329,"1132 W Bryn Mawr Ave, Chicago, IL 60660, USA",41.9839394,-87.6594231
470,LC Pho Restaurant,1,4.5,243,"2739 W Lawrence Ave, Chicago, IL 60625, USA",41.9683693,-87.6978505
497,Pho's Thai Cuisine,1,4.5,312,"3332 N Lincoln Ave, Chicago, IL 60657, USA",41.942366,-87.6707972
507,Little Corner Restaurant,1,4.5,618,"5937 N Broadway, Chicago, IL 60660, USA",41.9901438,-87.6599947
529,Pho Viet,1,4.5,506,"4941 N Broadway, Chicago, IL 60640, USA",41.9727434,-87.659569
539,Bartoli's Pizzeria,1,4.5,452,"1955 W Addison St, Chicago, IL 60613, USA",41.9466937,-87.6783028
540,Diner Grill,1,4.5,613,"1635 W Irving Park Rd, Chicago, IL 60613, USA",41.9541179,-87.6705083
561,Pick Me Up Cafe,1,4.5,1324,"4882 N Clark St, Chicago, IL 60640, USA",41.9712284,-87.668092
587,Ziggy's Side-Door Pub,1,4.5,51,"6158 W 63rd St, Chicago, IL 60638, USA",41.7779623,-87.7761843
645,Coluta's Pizza,1,4.5,166,"3239 N Harlem Ave, Chicago, IL 60634, USA",41.9390817,-87.806318
660,Three Sons Restaurant,1,4.5,812,"6200 S Archer Ave, Chicago, IL 60638, USA",41.7940054,-87.7747622
661,Mayfair Restaurant,1,4.5,195,"4461 W Lawrence Ave, Chicago, IL 60630, USA",41.9678889,-87.7402139
663,Yindee Restaurant,1,4.5,127,"1824 W Addison St, Chicago, IL 60613, USA",41.947066,-87.674956
670,Green Tomato Cafe,1,4.5,304,"3750 W Ogden Ave, Chicago, IL 60623, USA",41.8532656,-87.7195887
737,Brothers Restaurant,1,4.5,157,"3000 W Belmont Ave, Chicago, IL 60618, USA",41.9395815,-87.7029244
748,Oasis Cafe,1,4.5,368,"21 N Wabash Ave, Chicago, IL 60602, USA",41.8826666,-87.625696
753,Johnnies Snack Shop IL,1,4.5,279,"160 N Halsted St, Chicago, IL 60661, USA",41.8848689,-87.6476129
760,Pride Sushi and Thai,1,4.5,277,"2706 W Peterson Ave, Chicago, IL 60659, USA",41.9906724,-87.6973719
776,Eppel's Restaurant,1,4.5,1041,"554 Roosevelt Rd, Chicago, IL 60607, USA",41.867403,-87.641464
781,Carm's Beef and Italian Ice,1,4.5,294,"1057 W Polk St, Chicago, IL 60607, USA",41.8716315,-87.6534664
800,Bongiorno's Cucina Italiana & Pizzeria,1,4.5,964,"405 N Wabash Ave, Chicago, IL 60611, USA",41.8898261,-87.626044
808,Gina's Chicken,1,4.5,140,"3415 E 106th St, Chicago, IL 60617, USA",41.7025897,-87.5406674
825,Stella's Diner,1,4.5,974,"3042 N Broadway #5316, Chicago, IL 60657, USA",41.93776,-87.644538
836,Peking Mandarin Restaurant,1,4.5,680,"3459 W Lawrence Ave, Chicago, IL 60625, USA",41.968219,-87.7156819
838,Thai Valley,1,4.5,193,"4600 N Kedzie Ave, Chicago, IL 60625, USA",41.9648361,-87.7085089
854,Cozy Corner Restaurant and Pancake House,1,4.5,2355,"2294 N Milwaukee Ave, Chicago, IL 60647, USA",41.9223785,-87.6970022
884,City Cafe,1,4.5,303,"3234 N Pulaski Rd, Chicago, IL 60641, USA",41.9401082,-87.7273431
900,Panaderia Nuevo Leon,1,4.5,694,"1634 W 18th St, Chicago, IL 60608, USA",41.8579091,-87.6675645
916,Tata's Pizza,1,4.5,120,"3019 W 111th St, Chicago, IL 60655, USA",41.6913753,-87.6969033
927,Redz Belizean Restaurant,1,4.5,307,"7605 N Paulina St, Chicago, IL 60626, USA",42.0196415,-87.6728308
930,Cozy Corner Restaurant & Pancake House,1,4.5,1471,"6349 N Clark St, Chicago, IL 60660, USA",41.9978747,-87.6702067
952,Ruby's Fast Food,1,4.5,473,"4551 N Pulaski Rd, Chicago, IL 60630, USA",41.9640519,-87.7275692
984,Kabobi - Persian and Mediterranean Grill,1,4.5,3360,"4748 N Kedzie Ave, Chicago, IL 60625, USA",41.9680573,-87.7086345
991,Sunrise Cafe Chicago,1,4.5,333,"2012 W Chicago Ave, Chicago, IL 60622, USA",41.8960161,-87.6776513
1040,Chicago Taco Authority,1,4.5,714,"4219 W Irving Park Rd, Chicago, IL 60641, USA",41.95336,-87.7333583
1057,Thai Thank You,1,4.5,108,"3248 N Lincoln Ave, Chicago, IL 60657, USA",41.9409567,-87.6696922
1082,Windy City Cafe,1,4.5,614,"1062 W Chicago Ave, Chicago, IL 60642, USA",41.896471,-87.655041
1097,Dulce Cafe Cubano,1,4.5,35,"5100 S Racine Ave, Chicago, IL 60609, USA",41.8011714,-87.6552847
1120,Mr. Taco Mex,1,4.5,375,"10658 S Torrence Ave, Chicago, IL 60617, USA",41.7010949,-87.5599083
1128,Sweet Maple Cafe,1,4.5,1300,"1339 W Taylor St, Chicago, IL 60607, USA",41.8691928,-87.6607119
1137,China Lamp Restaurant,1,4.5,219,"4603 S Ashland Ave, Chicago, IL 60609, USA",41.810237,-87.664593
1177,Dimo's Pizza Wicker Park,1,4.5,1313,"1615 N Damen Ave, Chicago, IL 60647, USA",41.9110152,-87.6771417
1247,Bia's Cafe Marianao,1,4.5,863,"4323 W Addison St, Chicago, IL 60641, USA",41.9460917,-87.7361795
1248,Chicken Hut,1,4.5,295,"3200 N Broadway, Chicago, IL 60657, USA",41.9402011,-87.6446151
1271,Makkah Cafe,1,4.5,55,"6349 N Claremont Ave, Chicago, IL 60659, USA",41.9973605,-87.6884595
1276,Charmers Cafe,1,4.5,326,"1500 W Jarvis Ave, Chicago, IL 60626, USA",42.0161854,-87.6683297
1279,Taqueria Traspasada,1,4.5,648,"3144 N California Ave, Chicago, IL 60618, USA",41.9389628,-87.6980325
1286,The Outpost Mexican Eatery,1,4.5,95,"520 W Harrison St, Chicago, IL 60607, USA",41.8744799,-87.6404071
1289,Sultan's Market,1,4.5,1243,"2057 W North Ave, Chicago, IL 60647, USA",41.910298,-87.6796464
1303,Thai Basil,1,4.5,30,"937 N Damen Ave, Chicago, IL 60622, USA",41.8988021,-87.677008
1307,Cafe 63,1,4.5,289,"6411 W 63rd St, Chicago, IL 60638, USA",41.7774852,-87.7817997
1308,Pupuseria,1,4.5,695,"6533 W 63rd St, Chicago, IL 60638, USA",41.7774631,-87.7850087
1310,Old Lviv,1,4.5,270,"2228 W Chicago Ave, Chicago, IL 60622, USA",41.8959303,-87.683171
1330,Jess Cafe,1,4.5,936,"5819 W Belmont Ave, Chicago, IL 60634, USA",41.9384102,-87.7721857
11,South Loop - Lou Malnati's Pizzeria,2,4.5,7082,"805 S State St, Chicago, IL 60605, USA",41.8715611,-87.6272861
15,Forno Rosso Pizzeria Napoletana,2,4.5,893,"1048 W Randolph St, Chicago, IL 60607, USA",41.8846823,-87.6541832
20,Blue Sushi Sake Grill,2,4.5,90,"2351 N Lincoln Ave Suite A1-120, Chicago, IL 60614, USA",41.9247053,-87.647467
26,Pho No.1 Brewing Co.,2,4.5,32,"7958 W Belmont Ave, Chicago, IL 60634, USA",41.9379543,-87.8260787
29,Egg Harbor Cafe,2,4.5,374,"220 E Illinois St, Chicago, IL 60611, USA",41.8912318,-87.6216051
34,Blue Bottle Coffee,2,4.5,247,"313 W Wolf Point Plaza, Chicago, IL 60654, USA",41.8877617,-87.6369341
41,Time Out Market Chicago,2,4.5,1528,"916 W Fulton Market, Chicago, IL 60607, USA",41.8868872,-87.650454
87,Philz Coffee,2,4.5,10,"27 W. Chicago Ave Retail B, Chicago, IL 60654, USA",41.89651,-87.6293037
101,Starbucks Reserve,2,4.5,575,"1003 N Rush St, Chicago, IL 60611, USA",41.9009507,-87.6274765
105,Kuma's Corner West Loop,2,4.5,1895,"852 W Fulton Market, Chicago, IL 60607, USA",41.8869103,-87.6496358
144,Intelligentsia Coffee Wicker Park Coffeebar,2,4.5,364,"1609 W Division St, Chicago, IL 60622, USA",41.9031205,-87.6678488
153,Coffee Joint,2,4.5,254,"2059 W Irving Park Rd, Chicago, IL 60618, USA",41.9539955,-87.6810314
169,Stan's Donuts & Coffee,2,4.5,776,"2800 N Clark St, Chicago, IL 60657, USA",41.93292,-87.6451225
180,Giordano's,2,4.5,7981,"223 W Jackson Blvd, Chicago, IL 60606, USA",41.8780104,-87.634898
282,The Coffee Studio,2,4.5,488,"5628 N Clark St, Chicago, IL 60660, USA",41.984294,-87.669108
323,Ain't She Sweet Cafe,2,4.5,632,"9920 S Western Ave, Chicago, IL 60643, USA",41.7132954,-87.6820123
340,Pequod's Pizza,2,4.5,10110,"2207 N Clybourn Ave, Chicago, IL 60614, USA",41.921934,-87.6643512
424,Four Seasons Dumplings,2,4.5,71,"3205 S Halsted St, Chicago, IL 60608, USA",41.8360163,-87.6458318
427,Tanoshii,2,4.5,374,"5547 N Clark St, Chicago, IL 60640, USA",41.9830944,-87.6684306
435,Awash Ethiopian Restaurant,2,4.5,297,"6324 N Broadway, Chicago, IL 60660, USA",41.9971996,-87.6608469
443,Nano western,2,4.5,82,"4256 N Western Ave, Chicago, IL 60618, USA",41.9593673,-87.6889059
445,Russian Tea Time Restaurant,2,4.5,757,"77 E Adams St, Chicago, IL 60603, USA",41.8793475,-87.6250758
476,Wentworth Seafood House,2,4.5,295,"2229 S Wentworth Ave, Chicago, IL 60616, USA",41.8519795,-87.6318555
481,Cafe Marbella Tapas,2,4.5,336,"5527 N Milwaukee Ave, Chicago, IL 60630, USA",41.982453,-87.7735881
500,Woo Chon Korean BBQ Restaurant,2,4.5,360,"5744 N California Ave, Chicago, IL 60659, USA",41.9862391,-87.6994954
531,Aroy Thai Chicago,2,4.5,342,"4654 N Damen Ave, Chicago, IL 60625, USA",41.9667121,-87.6793152
573,The Pasta Bowl - Lincoln Park,2,4.5,934,"2434 N Clark St, Chicago, IL 60614, USA",41.9264445,-87.6411894
592,True Food Kitchen,2,4.5,1724,"1 W Erie St, Chicago, IL 60654, USA",41.893954,-87.628365
598,Antique Taco Wicker Park,2,4.5,1012,"1360 N Milwaukee Ave, Chicago, IL 60622, USA",41.9064135,-87.6716364
600,Sapori Napoletani Pizzeria Napoletana Wood burning oven,2,4.5,411,"6050 N Northwest Hwy, Chicago, IL 60631, USA",41.9909716,-87.7974199
609,Basil Leaf Cafe,2,4.5,341,"2465 N Clark St, Chicago, IL 60614, USA",41.9272732,-87.6413781
614,Honeybear Cafe,2,4.5,722,"7036 N Clark St, Chicago, IL 60626, USA",42.0100445,-87.6743688
619,El Mariachi Restaurant,2,4.5,294,"3420 N Broadway, Chicago, IL 60657, USA",41.9438354,-87.6454144
640,Gold Coast - Lou Malnati's Pizzeria,2,4.5,4470,"1120 N State St, Chicago, IL 60610, USA",41.9026225,-87.6285973
643,Cafe El Tapatio,2,4.5,941,"3400 N Ashland Ave, Chicago, IL 60657, USA",41.943492,-87.66908
677,Harry Caray's Italian Steakhouse,2,4.5,2353,"33 W Kinzie St, Chicago, IL 60654, USA",41.8891009,-87.6293401
694,Mrs. Murphy & Sons Irish Bistro,2,4.5,472,"3905 N Lincoln Ave, Chicago, IL 60613, USA",41.952618,-87.677464
697,Dee's,2,4.5,110,"1114 W Armitage Ave, Chicago, IL 60614, USA",41.9182341,-87.6561199
708,BienMeSabe Venezuelan Cafe & Restaurant,2,4.5,1660,"1637 W Montrose Ave, Chicago, IL 60613, USA",41.9614059,-87.6706256
714,Yeowoosai,2,4.5,279,"6248 N California Ave, Chicago, IL 60659, USA",41.9952731,-87.7000128
722,Glenn's Diner,2,4.5,935,"1820 W Montrose Ave, Chicago, IL 60613, USA",41.9616139,-87.675514
723,Green Tea Japanese Restaurant,2,4.5,208,"2206 N Clark St, Chicago, IL 60614, USA",41.9222065,-87.6386594
769,Joseph's Bar & Restaurant,2,4.5,204,"3123 W 111th St, Chicago, IL 60655, USA",41.6914766,-87.6993967
784,La Crosta Woodfire Pizzeria Italiana,2,4.5,310,"2360 N Lincoln Ave, Chicago, IL 60614, USA",41.9248589,-87.6482891
792,Yuzu Sushi & Robata Grill,2,4.5,1215,"1751 W Chicago Ave, Chicago, IL 60622, USA",41.8957762,-87.6717132
804,Martino's Italian Cuisine & Pizzeria,2,4.5,231,"3431 W Peterson Ave, Chicago, IL 60659, USA",41.9900498,-87.7153733
806,MeeNaRi Restaurant,2,4.5,66,"3311 W Bryn Mawr Ave, Chicago, IL 60659, USA",41.9828216,-87.7117828
822,Honey Butter Fried Chicken,2,4.5,3381,"3361 N Elston Ave, Chicago, IL 60618, USA",41.9426281,-87.7028305
828,Revival Food Hall,2,4.5,2886,"125 S Clark St, Chicago, IL 60603, USA",41.8798393,-87.6305668
855,Manny's Cafeteria & Delicatessen,2,4.5,3128,"1141 S Jefferson St, Chicago, IL 60607, USA",41.8679561,-87.6419647
858,El Nandu Restaurant,2,4.5,468,"2731 W Fullerton Ave #3015, Chicago, IL 60647, USA",41.9246145,-87.6962187
896,Sushi X,2,4.5,277,"1136 W Chicago Ave, Chicago, IL 60642, USA",41.8963992,-87.6566781
909,Corey's NYC Bagel Deli,2,4.5,383,"1001 W North Ave, Chicago, IL 60642, USA",41.9104317,-87.6534634
914,Kai Sushi,2,4.5,539,"1255 S State St, Chicago, IL 60605, USA",41.8660148,-87.627117
915,Miku Sushi,2,4.5,571,"4514 N Lincoln Ave, Chicago, IL 60625, USA",41.9635439,-87.6854695
925,Bel-Ami,2,4.5,124,"5530 N Lincoln Ave, Chicago, IL 60625, USA",41.9820931,-87.6936872
974,Flo & Santos,2,4.5,1667,"1310 S Wabash Ave, Chicago, IL 60605, USA",41.8653731,-87.6262352
999,Tacos Don Cuco,2,4.5,337,"1847 W 47th St, Chicago, IL 60609, USA",41.8083801,-87.6716886
1011,Tre Kronor,2,4.5,1080,"3258 W Foster Ave, Chicago, IL 60625, USA",41.9758933,-87.7110012
1021,Ceres Cafe,2,4.5,787,"141 W Jackson Blvd, Chicago, IL 60604, USA",41.8778132,-87.6319758
1030,Bourbon Cafe,2,4.5,200,"4768 N Lincoln Ave, Chicago, IL 60625, USA",41.968308,-87.6884793
1122,Carmelo's Taco Place,2,4.5,197,"2746 W 59th St, Chicago, IL 60629, USA",41.7865904,-87.6929505
1126,Easy Street Pizza & Beer Garden,2,4.5,690,"3750 N Central Ave, Chicago, IL 60634, USA",41.9491862,-87.7671093
1131,Dib Sushi Bar and Thai Cuisine,2,4.5,350,"1025 W Lawrence Ave, Chicago, IL 60640, USA",41.9688148,-87.6559892
1171,BITES asian kitchen + bar,2,4.5,599,"3313 N Clark St, Chicago, IL 60657, USA",41.9422519,-87.6522487
1183,El Cangrejo seafood restaurant,2,4.5,777,"4472 S Archer Ave, Chicago, IL 60632, USA",41.8120967,-87.7078323
1191,Amarind's Thai Restaurant,2,4.5,203,"6822 W North Ave, Chicago, IL 60707, USA",41.9092369,-87.7958221
1195,Bruna's Ristorante,2,4.5,436,"2424 S Oakley Ave, Chicago, IL 60608, USA",41.8476402,-87.6833344
1246,"Artopolis Bakery, Cafe & Agora",2,4.5,1404,"306 S Halsted St, Chicago, IL 60661, USA",41.877629,-87.647546
1296,Lucy's Cafe,2,4.5,442,"2100 W Roscoe St, Chicago, IL 60618, USA",41.9434243,-87.6810411
1320,Ricano's Restaurant,2,4.5,258,"230 S Ashland Ave, Chicago, IL 60607, USA",41.8779279,-87.6669666
1340,Dino's Italian Pizza & Italian Restaurant,2,4.5,812,"7004 W Higgins Ave, Chicago, IL 60656, USA",41.9803871,-87.8026336
352,Union Sushi + Barbeque Bar,3,4.5,1019,"230 W Erie St, Chicago, IL 60654, USA",41.8942046,-87.6353784
369,Herb,3,4.5,207,"5424 N Broadway, Chicago, IL 60640, USA",41.9807359,-87.6603652
548,GT Fish & Oyster,3,4.5,831,"531 N Wells St, Chicago, IL 60654, USA",41.891798,-87.633833
623,GEMINI,3,4.5,535,"2075 N Lincoln Ave, Chicago, IL 60614, USA",41.919968,-87.640866
650,Erie Cafe,3,4.5,517,"536 W Erie St, Chicago, IL 60654, USA",41.8941369,-87.6427217
883,The Rosebud,3,4.5,986,"1500 W Taylor St, Chicago, IL 60607, USA",41.869445,-87.6642752
897,Geja's Cafe,3,4.5,1365,"340 W Armitage Ave, Chicago, IL 60614, USA",41.9184882,-87.6381133
1318,The Chicago Firehouse Restaurant,3,4.5,1112,"1401 S Michigan Ave, Chicago, IL 60605, USA",41.8639214,-87.6238957
327,Arun's Thai Restaurant,4,4.5,142,"4156 N Kedzie Ave, Chicago, IL 60618, USA",41.9574482,-87.7082472
538,North Pond,4,4.5,423,"2610 N Cannon Dr, Chicago, IL 60614, USA",41.9298705,-87.6374652
652,Next Restaurant,4,4.5,508,"953 W Fulton Market, Chicago, IL 60607, USA",41.8865975,-87.6519052
1053,RPM Seafood,4,4.5,717,"317 N Clark St, Chicago, IL 60654, USA",41.8879836,-87.6307625
13,Wells Street Market,NULL,4.5,219,"205 W Wacker Dr #100, Chicago, IL 60606, USA",41.8866382,-87.6342253
49,O'Manny's Mexican Restaurant,NULL,4.5,68,"3641 W Irving Park Rd, Chicago, IL 60618, USA",41.9535844,-87.7194168
70,Leonidas Cafe Chocolaterie,NULL,4.5,220,"59 E Chicago Ave, Chicago, IL 60611, USA",41.8965483,-87.6259419
72,Almendro Cafe,NULL,4.5,13,"5030 S Cornell Ave, Chicago, IL 60615, USA",41.8032729,-87.5867421
80,Trio's Pizza,NULL,4.5,99,"7009 W Higgins Ave, Chicago, IL 60656, USA",41.9800378,-87.8029122
81,Halas Rec Center,NULL,4.5,42,"6458 N Winthrop Ave, Chicago, IL 60660, USA",41.9997553,-87.6593063
127,Bond Coffee Collective,NULL,4.5,248,"7555 N California Ave, Chicago, IL 60645, USA",42.0190289,-87.6991643
157,Cafe Utjeha,NULL,4.5,127,"5350 N Lincoln Ave, Chicago, IL 60625, USA",41.9790686,-87.6929199
161,Nonna Soluri's Italian Deli,NULL,4.5,194,"3142 S Morgan St, Chicago, IL 60608, USA",41.8366791,-87.6513589
179,Overflow Coffee,NULL,4.5,96,"1449 S Michigan Ave, Chicago, IL 60605, USA",41.8626737,-87.6235952
205,El Churro Shop,NULL,4.5,22,"3536 W 26th St, Chicago, IL 60623, USA",41.8445915,-87.7137909
245,What's Krackin? Southern Seafood,NULL,4.5,89,"1310 E 53rd St, Chicago, IL 60615, USA",41.799694,-87.5945267
247,The Bakery Box,NULL,4.5,67,"47 E Ohio St, Chicago, IL 60611, USA",41.8923674,-87.626115
254,BABA's Buffalo FAMOUS Crispy Chicken and Lemonade,NULL,4.5,50,"5360 W Division St, Chicago, IL 60651, USA",41.9023989,-87.7605025
273,Raffaello Cafe,NULL,4.5,10,"5645 N Lincoln Ave, Chicago, IL 60659, USA",41.9842643,-87.696495
288,Cake Sweet Food Chicago,NULL,4.5,46,"1635 W Walnut St, Chicago, IL 60612, USA",41.885995,-87.6683916
397,Tony's Chinese Food,NULL,4.5,17,"3312 W 63rd St, Chicago, IL 60629, USA",41.7791198,-87.706189
411,Pizza Fried Chicken Ice Cream,NULL,4.5,109,"964 W 31st St, Chicago, IL 60608, USA",41.838118,-87.6512702
448,Birrieria Zaragoza,NULL,4.5,32,"4852 S Pulaski Rd, Chicago, IL 60632, USA",41.8044716,-87.7237075
472,Delicious Pho,NULL,4.5,39,"5033 N Elston Ave Unit 143, Chicago, IL 60630, USA",41.9727333,-87.7457287
530,Paisans Pizzeria,NULL,4.5,209,"700 S Clark St, Chicago, IL 60605, USA",41.8732967,-87.6307898
542,Semilla's Latin Kitchen & Wine Bar,NULL,4.5,98,"6764 N Sheridan Rd, Chicago, IL 60626, USA",42.0053801,-87.6612606
566,necessary & sufficient coffee,NULL,4.5,156,"3624 W Wrightwood Ave, Chicago, IL 60647, USA",41.9284052,-87.7181409
579,La Piramide,NULL,4.5,65,"3645 W Lawrence Ave, Chicago, IL 60625, USA",41.9682053,-87.7200279
659,Ascione Bistro,NULL,4.5,434,"1500 E 55th St, Chicago, IL 60615, USA",41.7953227,-87.5886498
696,Mariegold Bakery & Fast,NULL,4.5,26,"5752 N California Ave, Chicago, IL 60659, USA",41.986461,-87.699606
710,International Sandwich Shop,NULL,4.5,40,"1 N Franklin St #180, Chicago, IL 60606, USA",41.8822757,-87.6350633
779,El Kaporal Restaurant,NULL,4.5,133,"5078 S Archer Ave, Chicago, IL 60632, USA",41.8011985,-87.7278534
852,Cafe Orient 33 Asian Restaurant,NULL,4.5,59,"4829 N Kedzie Ave, Chicago, IL 60625, USA",41.9693568,-87.7080682
931,Chicago French Market,NULL,4.5,1555,"131 N Clinton St, Chicago, IL 60661, USA",41.8840889,-87.6408556
1016,Fontano's Sub,NULL,4.5,489,"2151 W 95th St, Chicago, IL 60643, USA",41.7207779,-87.6767993
1037,Sumu Tokyo ramen & Sushi,NULL,4.5,137,"1131 W Madison St, Chicago, IL 60607, USA",41.8815232,-87.655536
1104,Pho Le 777,NULL,4.5,26,"6257 N McCormick Blvd, Chicago, IL 60659, USA",41.9954932,-87.7126049
1160,Minna's Restaurant #2,NULL,4.5,6,"5708 S Western Ave, Chicago, IL 60636, USA",41.7899003,-87.6841733
1210,Aranda Mexican Restaurant,NULL,4.5,198,"6706 W Belmont Ave, Chicago, IL 60639, USA",41.9383743,-87.7936391
1212,Little Madrid Tapas-Cafe,NULL,4.5,118,"5661 N Clark St, Chicago, IL 60660, USA",41.9851369,-87.6689452
1223,Gallucci Pizzeria Napoletana,NULL,4.5,103,"1551 N Wells St, Chicago, IL 60610, USA",41.9106389,-87.634507
1229,Taco Max Mexican Grill,NULL,4.5,125,"3402 W Montrose Ave, Chicago, IL 60618, USA",41.9613187,-87.7134355
1284,Indie Bar + Sushi & Noodles,NULL,4.5,364,"5951 N Broadway, Chicago, IL 60660, USA",41.9905529,-87.6600893
1295,Cafe San Francesco,NULL,4.5,35,"3815 N Harlem Ave, Chicago, IL 60634, USA",41.9494405,-87.8068893
1301,Kraken Sushi & Beyond,NULL,4.5,101,"4022 N Western Ave, Chicago, IL 60618, USA",41.9548156,-87.6888566
1323,540 West Madison,NULL,4.5,68,"540 W Madison St, Chicago, IL 60661, USA",41.8826419,-87.6417207
1331,Jalalisco Restaurant,NULL,4.5,17,"4224 W 31st St, Chicago, IL 60623, USA",41.8370323,-87.7302505
62,Bellonas Pizza,1,4.6,228,"3447 W Montrose Ave, Chicago, IL 60618, USA",41.9609674,-87.7149616
77,Jimmy's Red Hots,1,4.6,4178,"4000 W Grand Ave, Chicago, IL 60651, USA",41.9064324,-87.7265519
